ADDRESS,ADMIN_DIST,ATS_CODE,BORO,BORONUM,City,FAX,GEO_DISTRI,GRADES,LOC_CODE,MANAGED_BY,PRINCIPAL,PRIN_PH,SCHOOLNAME,SCH_TYPE,STATE_CODE,ZIP,geometry,lat,lon,index_right,index,uhf34,mood1,mood2,mood3,mood4,mood5,mood6,agg_mood,nspd,Total Enrollment
309 47 STREET,15.0,15K001 ,K,2.0,BROOKLYN,718-567-9771,15,"PK,0K,01,02,03,04,05,SE",K001,1.0,Jennifer Eusanio,718-567-7661,P.S. 001 THE BERGEN,Elementary,NY,11220,POINT (-74.01176589685977 40.64915359571094),40.6491535957,-74.0117658969,8.0,9.0,9.0,4.31640625,4.345703125,4.2255859375,4.611328125,3.85239491691,4.677734375,6.66201453403,6.68647458268,1280.0
655 PARKSIDE AVENUE,17.0,17K002 ,K,2.0,BROOKLYN,718-284-7717,17,"06,07,08,SE",K002,1.0,ADRIENNE SPENCER,718-462-6992,M.S. 002,Junior High-Intermediate-Middle,NY,11226,POINT (-73.951218065105 40.65642068697075),40.656420687,-73.9512180651,10.0,11.0,11.0,4.42335766423,4.04094631483,4.23406193078,4.60746812386,4.00818926297,4.64539653601,6.41496610377,6.53152013594,475.0
345 VAN SICKLEN STREET,21.0,21K095 ,K,2.0,BROOKLYN,718-449-3047,21,"PK,0K,01,02,03,04,05,06,07,08,SE",K095,1.0,Janet Ndzibah,718-449-5050,P.S. 095 THE GRAVESEND,K-8,NY,11223,POINT (-73.97488433380778 40.59574496207723),40.5957449621,-73.9748843338,13.0,14.0,14.0,4.37473903967,4.01989528796,4.22779519331,4.61337513062,4.0355276907,4.72413793103,6.49883981342,5.82904349688,932.0
99 AVENUE P,21.0,21K096 ,K,2.0,BROOKLYN,718-236-2397,21,"06,07,08,SE",K096,1.0,Denise Sandra Levinsky,718-236-1344,I.S. 096 SETH LOW,Junior High-Intermediate-Middle,NY,11204,POINT (-73.98491098572097 40.60778712848697),40.6077871285,-73.9849109857,9.0,10.0,10.0,4.34991974318,4.20224719101,4.19422150883,4.56982343499,4.06902086677,4.65008025682,6.65910094356,6.21263238185,641.0
1855 STILLWELL AVENUE,21.0,21K097 ,K,2.0,BROOKLYN,718-372-3842,21,"PK,0K,01,02,03,04,05,SE",K097,1.0,KRISTINE MUSTILLO,718-372-7393,P.S. 97 THE HIGHLAWN,Elementary,NY,11223,POINT (-73.98575731504727 40.60125352010608),40.6012535201,-73.985757315,13.0,14.0,14.0,4.37473903967,4.01989528796,4.22779519331,4.61337513062,4.0355276907,4.72413793103,6.49883981342,5.82904349688,833.0
1401 EMMONS AVENUE,21.0,21K098 ,K,2.0,BROOKLYN,718-891-3865,21,"06,07,08,SE",K098,1.0,MARIA TIMO,718-891-9005,I.S. 98 BAY ACADEMY,Junior High-Intermediate-Middle,NY,11235,POINT (-73.95396970260187 40.58347977170845),40.5834797717,-73.9539697026,13.0,14.0,14.0,4.37473903967,4.01989528796,4.22779519331,4.61337513062,4.0355276907,4.72413793103,6.49883981342,5.82904349688,1493.0
1120 EAST  10 STREET,21.0,21K099 ,K,2.0,BROOKLYN,718-951-0418,21,"PK,0K,01,02,03,04,05,06,07,08,SE",K099,1.0,GREGORY PIRRAGLIA,718-338-9201,P.S. 099 ISAAC ASIMOV,K-8,NY,11230,POINT (-73.96587715295544 40.62149219677401),40.6214921968,-73.965877153,9.0,10.0,10.0,4.34991974318,4.20224719101,4.19422150883,4.56982343499,4.06902086677,4.65008025682,6.65910094356,6.21263238185,883.0
2951 WEST  3 STREET,21.0,21K100 ,K,2.0,BROOKLYN,718-266-7112,21,"PK,0K,01,02,03,04,05,SE",K100,1.0,Katherine A. Moloney,718-266-9477,P.S. 100 THE CONEY ISLAND SCHOOL,Elementary,NY,11224,POINT (-73.97095894358253 40.57757238723487),40.5775723872,-73.9709589436,13.0,14.0,14.0,4.37473903967,4.01989528796,4.22779519331,4.61337513062,4.0355276907,4.72413793103,6.49883981342,5.82904349688,761.0
2360 BENSON AVENUE,21.0,21K101 ,K,2.0,BROOKLYN,718-372-1873,21,"PK,0K,01,02,03,04,05,SE",K101,1.0,GREGG KORROL,718-372-0221,P.S. 101 THE VERRAZANO,Elementary,NY,11214,POINT (-73.99174960608802 40.59758226654303),40.5975822665,-73.9917496061,12.0,13.0,13.0,4.36958710977,4.27391742195,4.29305135952,4.63608870968,4.02527805865,4.74672048436,7.71822059233,5.40644744438,886.0
211 72 STREET,20.0,20K102 ,K,2.0,BROOKLYN,718-836-9265,20,"0K,01,02,03,04,05,SE",K102,1.0,Ms. Theresa Dovi,718-748-7404,P.S. 102 THE BAYVIEW,Elementary,NY,11209,POINT (-74.02894809814602 40.63417575281551),40.6341757528,-74.0289480981,12.0,13.0,13.0,4.36958710977,4.27391742195,4.29305135952,4.63608870968,4.02527805865,4.74672048436,7.71822059233,5.40644744438,1425.0
9115 5 AVENUE,20.0,20K104 ,K,2.0,BROOKLYN,718-836-9412,20,"0K,01,02,03,04,05,06,07,08,SE",K104,1.0,Ms. Marie DiBella,718-836-4630,P.S./I.S. 104 THE FORT HAMILTON SCHOOL,K-8,NY,11209,POINT (-74.02865489846121 40.61813631690296),40.6181363169,-74.0286548985,12.0,13.0,13.0,4.36958710977,4.27391742195,4.29305135952,4.63608870968,4.02527805865,4.74672048436,7.71822059233,5.40644744438,1236.0
1031 59 STREET,20.0,20K105 ,K,2.0,BROOKLYN,718-853-9633,20,"PK,0K,01,02,03,04,05,SE",K105,1.0,JOHANNA CASTRONOVO,718-438-3230,P.S. 105 THE BLYTHEBOURNE,Elementary,NY,11219,POINT (-74.00361510164826 40.63315168140669),40.6331516814,-74.0036151016,9.0,10.0,10.0,4.34991974318,4.20224719101,4.19422150883,4.56982343499,4.06902086677,4.65008025682,6.65910094356,6.21263238185,1675.0
1328 PUTNAM AVENUE,32.0,32K106 ,K,2.0,BROOKLYN,718-574-1054,32,"PK,0K,01,02,03,04,05,SE",K106,1.0,ROBERT FLORES,718-574-0261,P.S. 106 EDWARD EVERETT HALE,Elementary,NY,11221,POINT (-73.91267159954783 40.69369960018323),40.6936996002,-73.9126715995,14.0,15.0,15.0,4.23070469799,3.93718592965,4.02181208054,4.53227158424,3.80637049455,4.5788590604,3.61574589668,0.941989999715,505.0
1301 8 AVENUE,15.0,15K107 ,K,2.0,BROOKLYN,718-965-6479,15,"PK,0K,01,02,03,04,05,SE",K107,1.0,CYNTHIA HOLTON,718-499-2054,P.S. 107 JOHN W. KIMBALL,Elementary,NY,11215,POINT (-73.9812046779644 40.66302671941055),40.6630267194,-73.981204678,5.0,6.0,6.0,4.32936507937,3.98543046358,4.09788359788,4.56821192053,4.0,4.63612217795,5.30194273408,3.9833051145,572.0
200 LINWOOD STREET,19.0,19K108 ,K,2.0,BROOKLYN,718-827-4137,19,"0K,01,02,03,04,05,SE",K108,1.0,CONSTANCE HAHN,718-277-7010,P.S. 108 SAL ABBRACCIAMENTO,Elementary,NY,11208,POINT (-73.88428958567982 40.68127222593671),40.6812722259,-73.8842895857,7.0,8.0,8.0,4.39173680184,4.2874617737,4.26758409786,4.65902140673,3.90199081164,4.74655436447,7.39040828363,8.07967657711,982.0
1001 EAST  45 STREET,22.0,22K109 ,K,2.0,BROOKLYN,718-693-3072,22,"0K,01,02,03,04,05,06,07,08,SE",K109,1.0,Joan Thomas,718-693-3426,P.S. 109,K-8,NY,11203,POINT (-73.93297568084424 40.63674200229576),40.6367420023,-73.9329756808,10.0,11.0,11.0,4.42335766423,4.04094631483,4.23406193078,4.60746812386,4.00818926297,4.64539653601,6.41496610377,6.53152013594,695.0
124 MONITOR STREET,14.0,14K110 ,K,2.0,BROOKLYN,718-383-5053,14,"PK,0K,01,02,03,04,05,SE",K110,1.0,ANNA CANO AMATO,718-383-7600,P.S. 110 THE MONITOR,Elementary,NY,11222,POINT (-73.94204270376335 40.72365824962274),40.7236582496,-73.9420427038,4.0,5.0,5.0,4.13798701299,4.19500324465,4.10386238234,4.4377027904,3.77005521273,4.52826510721,3.82311054892,1.35595264588,447.0
7115 15 AVENUE,20.0,20K112 ,K,2.0,BROOKLYN,718-232-3609,20,"0K,01,02,03,04,05,SE",K112,1.0,Louise Verdemare (Alfano),718-232-0685,P.S. 112 LEFFERTS PARK,Elementary,NY,11228,POINT (-74.00069389916121 40.6194926703876),40.6194926704,-74.0006938992,12.0,13.0,13.0,4.36958710977,4.27391742195,4.29305135952,4.63608870968,4.02527805865,4.74672048436,7.71822059233,5.40644744438,614.0
300 ADELPHI STREET,13.0,13K113 ,K,2.0,BROOKLYN,718-596-2802,13,"06,07,08,SE",K113,1.0,Dawnique Daughtry,718-834-6734,M.S. 113 RONALD EDMONDS LEARNING CENTER,Junior High-Intermediate-Middle,NY,11205,POINT (-73.97124556469851 40.68851273768916),40.6885127377,-73.9712455647,5.0,6.0,6.0,4.32936507937,3.98543046358,4.09788359788,4.56821192053,4.0,4.63612217795,5.30194273408,3.9833051145,414.0
1077 REMSEN AVENUE,18.0,18K114 ,K,2.0,BROOKLYN,718-649-5216,18,"PK,0K,01,02,03,04,05,SE",K114,1.0,Darwin Smith,718-257-4428,P.S. 114 RYDER ELEMENTARY,Elementary,NY,11236,POINT (-73.90814428593906 40.64261454800118),40.642614548,-73.9081442859,11.0,12.0,12.0,4.42141036534,4.34523809524,4.37021276596,4.65136054422,3.92602040816,4.74808510638,8.06519405428,8.018645945,603.0
1500 EAST  92 STREET,18.0,18K115 ,K,2.0,BROOKLYN,718-209-1714,18,"PK,0K,01,02,03,04,05,SE",K115,1.0,Denis Guerin,718-241-1000,P.S. 115 DANIEL MUCATEL SCHOOL,Elementary,NY,11236,POINT (-73.89757680513695 40.63486735752873),40.6348673575,-73.8975768051,11.0,12.0,12.0,4.42141036534,4.34523809524,4.37021276596,4.65136054422,3.92602040816,4.74808510638,8.06519405428,8.018645945,1092.0
515 KNICKERBOCKER AVENUE,32.0,32K116 ,K,2.0,BROOKLYN,718-821-0363,32,"0K,01,02,03,04,05,SE",K116,1.0,SEIW KONG,718-821-4623,P.S. 116 ELIZABETH L FARRELL,Elementary,NY,11237,POINT (-73.91658114062027 40.69805648436513),40.6980564844,-73.9165811406,14.0,15.0,15.0,4.23070469799,3.93718592965,4.02181208054,4.53227158424,3.80637049455,4.5788590604,3.61574589668,0.941989999715,522.0
3829 AVENUE K,22.0,22K119 ,K,2.0,BROOKLYN,718-338-0694,22,"0K,01,02,03,04,05,SE",K119,1.0,LISA FERNANDEZ,718-377-7696,P.S. 119 AMERSFORT,Elementary,NY,11210,POINT (-73.9387406266372 40.62603770725484),40.6260377073,-73.9387406266,10.0,11.0,11.0,4.42335766423,4.04094631483,4.23406193078,4.60746812386,4.00818926297,4.64539653601,6.41496610377,6.53152013594,405.0
18 BEAVER STREET,14.0,14K120 ,K,2.0,BROOKLYN,718-574-6637,14,"PK,0K,01,02,03,04,05,SE",K120,1.0,Liza Caraballo,718-455-1000,P.S. 120 CARLOS TAPIA,Elementary,NY,11206,POINT (-73.93774723074912 40.70061165009948),40.7006116501,-73.9377472307,14.0,15.0,15.0,4.23070469799,3.93718592965,4.02181208054,4.53227158424,3.80637049455,4.5788590604,3.61574589668,0.941989999715,429.0
5301 20 AVENUE,21.0,21K121 ,K,2.0,BROOKLYN,718-252-4075,21,"PK,0K,01,02,03,04,05,06,07,08,SE",K121,1.0,LILLIAN CATALANO,718-377-8845,P.S. 121 NELSON A. ROCKEFELLER,K-8,NY,11204,POINT (-73.97880960883606 40.62288967273062),40.6228896727,-73.9788096088,9.0,10.0,10.0,4.34991974318,4.20224719101,4.19422150883,4.56982343499,4.06902086677,4.65008025682,6.65910094356,6.21263238185,356.0
100 IRVING AVENUE,32.0,32K123 ,K,2.0,BROOKLYN,718-821-0858,32,"0K,01,02,03,04,05,SE",K123,1.0,VERONICA GREENE,718-821-4810,P.S. 123 SUYDAM,Elementary,NY,11237,POINT (-73.92250388745674 40.70394746645847),40.7039474665,-73.9225038875,14.0,15.0,15.0,4.23070469799,3.93718592965,4.02181208054,4.53227158424,3.80637049455,4.5788590604,3.61574589668,0.941989999715,737.0
515 4 AVENUE,15.0,15K124 ,K,2.0,BROOKLYN,718-965-9558,15,"PK,0K,01,02,03,04,05,SE",K124,1.0,Annabelle Martinez,718-788-0246,P.S. 124 SILAS B. DUTCHER,Elementary,NY,11215,POINT (-73.99069764193841 40.66749421216213),40.6674942122,-73.9906976419,5.0,6.0,6.0,4.32936507937,3.98543046358,4.09788359788,4.56821192053,4.0,4.63612217795,5.30194273408,3.9833051145,341.0
424 LEONARD STREET,14.0,14K126 ,K,2.0,BROOKLYN,718-302-2319,14,"06,07,08,SE",K126,1.0,ROSEMARY OCHOA,718-782-2527,JOHN ERICSSON MIDDLE SCHOOL 126,Junior High-Intermediate-Middle,NY,11222,POINT (-73.94837476063879 40.71976453846683),40.7197645385,-73.9483747606,4.0,5.0,5.0,4.13798701299,4.19500324465,4.10386238234,4.4377027904,3.77005521273,4.52826510721,3.82311054892,1.35595264588,372.0
7805 7 AVENUE,20.0,20K127 ,K,2.0,BROOKLYN,718-836-9427,20,"0K,01,02,03,04,05,SE",K127,1.0,Agatha Alicandro,718-833-2323,P.S. 127 MCKINLEY PARK,Elementary,NY,11228,POINT (-74.01859887831321 40.62379239318376),40.6237923932,-74.0185988783,12.0,13.0,13.0,4.36958710977,4.27391742195,4.29305135952,4.63608870968,4.02527805865,4.74672048436,7.71822059233,5.40644744438,529.0
2075 84 STREET,21.0,21K128 ,K,2.0,BROOKLYN,718-266-6254,21,"PK,0K,01,02,03,04,05,SE",K128,1.0,MARCIA ROBINS,718-373-5900,P.S. 128 BENSONHURST,Elementary,NY,11214,POINT (-73.99546960307462 40.60502216144332),40.6050221614,-73.9954696031,12.0,13.0,13.0,4.36958710977,4.27391742195,4.29305135952,4.63608870968,4.02527805865,4.74672048436,7.71822059233,5.40644744438,425.0
70 OCEAN PARKWAY,15.0,15K130 ,K,2.0,BROOKLYN,718-854-9756,15,"PK,0K,01,02,03,04,05,SE",K130,1.0,MARIA NUNZIATA,718-686-1940,P.S. 130 THE PARKSIDE,Elementary,NY,11218,POINT (-73.97591819208371 40.6489288641402),40.6489288641,-73.9759181921,9.0,10.0,10.0,4.34991974318,4.20224719101,4.19422150883,4.56982343499,4.06902086677,4.65008025682,6.65910094356,6.21263238185,770.0
4305 FT HAMILTON PARKWAY,15.0,15K131 ,K,2.0,BROOKLYN,718-853-5952,15,"PK,0K,01,02,03,04,05,SE",K131,1.0,RUTH QUILES,718-686-1457,P.S. 131 BROOKLYN,Elementary,NY,11219,POINT (-73.9933455079083 40.64078377804587),40.640783778,-73.9933455079,9.0,10.0,10.0,4.34991974318,4.20224719101,4.19422150883,4.56982343499,4.06902086677,4.65008025682,6.65910094356,6.21263238185,1085.0
320 MANHATTAN AVENUE,14.0,14K132 ,K,2.0,BROOKLYN,718-599-7417,14,"PK,0K,01,02,03,04,05,SE",K132,1.0,BETH LUBECK,718-599-7301,P.S. 132 THE CONSELYEA SCHOOL,Elementary,NY,11211,POINT (-73.94588672778785 40.71476204649292),40.7147620465,-73.9458867278,4.0,5.0,5.0,4.13798701299,4.19500324465,4.10386238234,4.4377027904,3.77005521273,4.52826510721,3.82311054892,1.35595264588,689.0
4001 18 AVENUE,22.0,22K134 ,K,2.0,BROOKLYN,718-854-4115,22,"PK,0K,01,02,03,04,05,SE",K134,1.0,DEBRA RAMSARAN,718-436-7200,P.S. K134,Elementary,NY,11218,POINT (-73.97329311416465 40.63226343643443),40.6322634364,-73.9732931142,9.0,10.0,10.0,4.34991974318,4.20224719101,4.19422150883,4.56982343499,4.06902086677,4.65008025682,6.65910094356,6.21263238185,549.0
684 LINDEN BOULEVARD,18.0,18K135 ,K,2.0,BROOKLYN,718-941-0847,18,"PK,0K,01,02,03,04,05,SE",K135,1.0,Trevlyn Mcrae,718-693-4363,P.S. 135 SHELDON A. BROOKNER,Elementary,NY,11203,POINT (-73.93297375107556 40.65334683635166),40.6533468364,-73.9329737511,10.0,11.0,11.0,4.42335766423,4.04094631483,4.23406193078,4.60746812386,4.00818926297,4.64539653601,6.41496610377,6.53152013594,665.0
4004 4 AVENUE,15.0,15K136 ,K,2.0,BROOKLYN,718-965-9567,15,"06,07,08,SE",K136,1.0,ERIC SACKLER,718-965-3333,I.S. 136 CHARLES O. DEWEY,Junior High-Intermediate-Middle,NY,11232,POINT (-74.00732077411725 40.65198860212794),40.6519886021,-74.0073207741,8.0,9.0,9.0,4.31640625,4.345703125,4.2255859375,4.611328125,3.85239491691,4.677734375,6.66201453403,6.68647458268,495.0
121 SARATOGA AVENUE,23.0,23K137 ,K,2.0,BROOKLYN,718-453-5363,23,"PK,0K,01,02,03,04,05,06,07,08,SE",K137,1.0,Winston Riley,718-453-2926,P.S./I.S. 137 RACHEL JEAN MITCHELL,K-8,NY,11233,POINT (-73.91671994720005 40.68224554475319),40.6822455448,-73.9167199472,6.0,7.0,7.0,4.52483443709,4.13824503311,4.2309602649,4.68046357616,4.15269709544,4.75993377483,8.13194010503,8.88302655385,295.0
760 PROSPECT PLACE,17.0,17K138 ,K,2.0,BROOKLYN,718-953-3422,17,"PK,0K,01,02,03,04,05,06,07,08,SE",K138,1.0,Ms. Marie Chauvet-Monchik,718-467-0800,P.S. 138 BROOKLYN,K-8,NY,11216,POINT (-73.95133253263384 40.67414986276736),40.6741498628,-73.9513325326,6.0,7.0,7.0,4.52483443709,4.13824503311,4.2309602649,4.68046357616,4.15269709544,4.75993377483,8.13194010503,8.88302655385,679.0
330 RUGBY ROAD,22.0,22K139 ,K,2.0,BROOKLYN,718-940-1205,22,"PK,0K,01,02,03,04,05,SE",K139,1.0,MARY MCDONALD,718-282-5254,P.S. 139 ALEXINE A. FENTY,Elementary,NY,11226,POINT (-73.96573819706892 40.64140320613307),40.6414032061,-73.9657381971,10.0,11.0,11.0,4.42335766423,4.04094631483,4.23406193078,4.60746812386,4.00818926297,4.64539653601,6.41496610377,6.53152013594,978.0
985 ROCKAWAY AVENUE,75.0,75K140 ,K,2.0,BROOKLYN,718-498-9192,23,"PK,0K,01,02,03,04,05,06,07,08,SE",K140,1.0,MICHELLE CARPENTER,718-498-2800,P.S. K140,K-8,NY,11212,POINT (-73.90691830751199 40.65607542926308),40.6560754293,-73.9069183075,6.0,7.0,7.0,4.52483443709,4.13824503311,4.2309602649,4.68046357616,4.15269709544,4.75993377483,8.13194010503,8.88302655385,256.0
655 PARKSIDE AVENUE,75.0,75K141 ,K,2.0,BROOKLYN,718-941-3152,17,"PK,0K,01,02,03,04,05,06,07,08,09,10,11,12,SE",K141,1.0,MICHELE THORNTON MANNIX,718-941-0320,P.S. K141,K-12 all grades,NY,11226,POINT (-73.95176284035966 40.65639498724095),40.6563949872,-73.9517628404,10.0,11.0,11.0,4.42335766423,4.04094631483,4.23406193078,4.60746812386,4.00818926297,4.64539653601,6.41496610377,6.53152013594,374.0
100 NOLL STREET,32.0,32K145 ,K,2.0,BROOKLYN,718-417-3453,32,"PK,0K,01,02,03,04,05,SE",K145,1.0,MARILYN TORRES,718-821-4823,P.S. 145 ANDREW JACKSON,Elementary,NY,11206,POINT (-73.93220791328183 40.70153262659434),40.7015326266,-73.9322079133,14.0,15.0,15.0,4.23070469799,3.93718592965,4.02181208054,4.53227158424,3.80637049455,4.5788590604,3.61574589668,0.941989999715,709.0
610 HENRY STREET,15.0,15K146 ,K,2.0,BROOKLYN,718-923-4780,15,"PK,0K,01,02,03,04,05,SE",K146,1.0,ANNA ALLANBROOK,718-923-4750,P.S. 146,Elementary,NY,11231,POINT (-74.00168484971127 40.6799013833628),40.6799013834,-74.0016848497,5.0,6.0,6.0,4.32936507937,3.98543046358,4.09788359788,4.56821192053,4.0,4.63612217795,5.30194273408,3.9833051145,652.0
325 BUSHWICK AVENUE,14.0,14K147 ,K,2.0,BROOKLYN,718-628-4988,14,"PK,0K,01,02,03,04,05,SE",K147,1.0,JULIA DRAKE,718-497-0326,P.S. 147 ISSAC REMSEN,Elementary,NY,11206,POINT (-73.93885286498659 40.70515748536214),40.7051574854,-73.938852865,14.0,15.0,15.0,4.23070469799,3.93718592965,4.02181208054,4.53227158424,3.80637049455,4.5788590604,3.61574589668,0.941989999715,297.0
700 SUTTER AVENUE,19.0,19K149 ,K,2.0,BROOKLYN,718-345-8118,19,"PK,0K,01,02,03,04,05,SE",K149,1.0,ENID SILVERA,718-385-8666,P.S. 149 DANNY KAYE,Elementary,NY,11207,POINT (-73.89276069728925 40.66941757800758),40.669417578,-73.8927606973,7.0,8.0,8.0,4.39173680184,4.2874617737,4.26758409786,4.65902140673,3.90199081164,4.74655436447,7.39040828363,8.07967657711,734.0
364 SACKMAN STREET,23.0,23K150 ,K,2.0,BROOKLYN,718-922-3785,23,"0K,01,02,03,04,05,08,SE",K150,1.0,Pamela Bradley Muchere,718-495-7746,P.S. 150 CHRISTOPHER,K-8,NY,11212,POINT (-73.90501924782596 40.66856734106653),40.6685673411,-73.9050192478,6.0,7.0,7.0,4.52483443709,4.13824503311,4.2309602649,4.68046357616,4.15269709544,4.75993377483,8.13194010503,8.88302655385,184.0
763 KNICKERBOCKER AVENUE,32.0,32K151 ,K,2.0,BROOKLYN,718-821-0166,32,"PK,0K,01,02,03,04,05,SE",K151,1.0,Maria Anaya,718-821-4800,P.S. 151 LYNDON B. JOHNSON,Elementary,NY,11207,POINT (-73.9083111085569 40.69337718611082),40.6933771861,-73.9083111086,14.0,15.0,15.0,4.23070469799,3.93718592965,4.02181208054,4.53227158424,3.80637049455,4.5788590604,3.61574589668,0.941989999715,314.0
725 EAST  23 STREET,22.0,22K152 ,K,2.0,BROOKLYN,718-859-5965,22,"PK,0K,01,02,03,04,05,SE",K152,1.0,Dr. Rhonda D. Farkas,718-434-5222,SCHOOL OF SCIENCE & TECHNOLOGY,Elementary,NY,11210,POINT (-73.95435021790355 40.63265037001178),40.63265037,-73.9543502179,10.0,11.0,11.0,4.42335766423,4.04094631483,4.23406193078,4.60746812386,4.00818926297,4.64539653601,6.41496610377,6.53152013594,813.0
1970 HOMECREST AVENUE,21.0,21K153 ,K,2.0,BROOKLYN,718-375-4439,21,"PK,0K,01,02,03,04,05,SE",K153,1.0,Carl SantaMaria,718-375-4484,P.S. 153 HOMECREST,Elementary,NY,11229,POINT (-73.95997621867254 40.60119243289209),40.6011924329,-73.9599762187,13.0,14.0,14.0,4.37473903967,4.01989528796,4.22779519331,4.61337513062,4.0355276907,4.72413793103,6.49883981342,5.82904349688,565.0
1625 11 AVENUE,15.0,15K154 ,K,2.0,BROOKLYN,718-832-2573,15,"PK,0K,01,02,03,04,05,SE",K154,1.0,SAMUEL ORTIZ,718-768-0057,MAGNET SCHOOL FOR SCIENCE & TECHNOLOGY,Elementary,NY,11215,POINT (-73.97612805834693 40.65706736960831),40.6570673696,-73.9761280583,9.0,10.0,10.0,4.34991974318,4.20224719101,4.19422150883,4.56982343499,4.06902086677,4.65008025682,6.65910094356,6.21263238185,534.0
1355 HERKIMER STREET,23.0,23K155 ,K,2.0,BROOKLYN,718-345-9064,23,"PK,0K,01,02,03,04,05,06,07,08,SE",K155,1.0,NELLY CORTES,718-495-7751,P.S./ I.S. 155 NICHOLAS HERKIMER,K-8,NY,11233,POINT (-73.90871526350566 40.67760688699539),40.677606887,-73.9087152635,6.0,7.0,7.0,4.52483443709,4.13824503311,4.2309602649,4.68046357616,4.15269709544,4.75993377483,8.13194010503,8.88302655385,499.0
104 SUTTER AVENUE,23.0,23K156 ,K,2.0,BROOKLYN,718-346-2804,23,"PK,0K,01,02,03,04,05,SE",K156,1.0,BEVERLY LOGAN,718-498-2811,P.S. 156 WAVERLY,Elementary,NY,11212,POINT (-73.9181958106366 40.66573389840662),40.6657338984,-73.9181958106,6.0,7.0,7.0,4.52483443709,4.13824503311,4.2309602649,4.68046357616,4.15269709544,4.75993377483,8.13194010503,8.88302655385,751.0
850 KENT AVENUE,14.0,14K157 ,K,2.0,BROOKLYN,718-398-4155,14,"PK,0K,01,02,03,04,05,SE",K157,1.0,MARIBEL TORRES,718-622-9285,P.S. 157 BENJAMIN FRANKLIN,Elementary,NY,11205,POINT (-73.95994992673063 40.69541657419126),40.6954165742,-73.9599499267,5.0,6.0,6.0,4.32936507937,3.98543046358,4.09788359788,4.56821192053,4.0,4.63612217795,5.30194273408,3.9833051145,495.0
400 ASHFORD STREET,19.0,19K158 ,K,2.0,BROOKLYN,718-827-4300,19,"PK,0K,01,02,03,04,05,SE",K158,1.0,AUDREY WILSON,718-277-6116,P.S. 158 WARWICK,Elementary,NY,11207,POINT (-73.88506683631697 40.67258393563708),40.6725839356,-73.8850668363,7.0,8.0,8.0,4.39173680184,4.2874617737,4.26758409786,4.65902140673,3.90199081164,4.74655436447,7.39040828363,8.07967657711,613.0
2781 PITKIN AVENUE,19.0,19K159 ,K,2.0,BROOKLYN,718-827-4531,19,"0K,01,02,03,04,05,SE",K159,1.0,MONICA DUNCAN,718-277-4828,P.S. 159 ISAAC PITKIN,Elementary,NY,11208,POINT (-73.86966364698353 40.67598903194242),40.6759890319,-73.869663647,7.0,8.0,8.0,4.39173680184,4.2874617737,4.26758409786,4.65902140673,3.90199081164,4.74655436447,7.39040828363,8.07967657711,841.0
330 CROWN STREET,17.0,17K161 ,K,2.0,BROOKLYN,718-953-3605,17,"0K,01,02,03,04,05,06,07,08,SE",K161,1.0,Ms. Deborah Barrett,718-756-3100,P.S. 161 THE CROWN,K-8,NY,11225,POINT (-73.94922375281574 40.66596142561698),40.6659614256,-73.9492237528,10.0,11.0,11.0,4.42335766423,4.04094631483,4.23406193078,4.60746812386,4.00818926297,4.64539653601,6.41496610377,6.53152013594,409.0
1390 WILLOUGHBY AVENUE,32.0,32K162 ,K,2.0,BROOKLYN,718-821-1728,32,"06,07,08,SE",K162,1.0,Barbara DeMartino,718-821-4860,J.H.S. 162 THE WILLOUGHBY,Junior High-Intermediate-Middle,NY,11237,POINT (-73.91973710317571 40.70671993802124),40.706719938,-73.9197371032,14.0,15.0,15.0,4.23070469799,3.93718592965,4.02181208054,4.53227158424,3.80637049455,4.5788590604,3.61574589668,0.941989999715,471.0
4211 14 AVENUE,20.0,20K164 ,K,2.0,BROOKLYN,718-853-9306,20,"PK,0K,01,02,03,04,05,SE",K164,1.0,Margaret Choy-Shan,718-854-4100,P.S. 164 CAESAR RODNEY,Elementary,NY,11219,POINT (-73.98585075721986 40.63717463187604),40.6371746319,-73.9858507572,9.0,10.0,10.0,4.34991974318,4.20224719101,4.19422150883,4.56982343499,4.06902086677,4.65008025682,6.65910094356,6.21263238185,590.0
76 LOTT AVENUE,23.0,23K165 ,K,2.0,BROOKLYN,718-345-8255,23,"PK,0K,01,02,03,04,05,06,07,08,SE",K165,1.0,Fran Ellers,718-495-7759,P.S. 165 IDA POSNER,K-8,NY,11212,POINT (-73.91098055704403 40.65722026426055),40.6572202643,-73.910980557,6.0,7.0,7.0,4.52483443709,4.13824503311,4.2309602649,4.68046357616,4.15269709544,4.75993377483,8.13194010503,8.88302655385,408.0
1025 EASTERN PARKWAY,17.0,17K167 ,K,2.0,BROOKLYN,718-953-1954,17,"PK,0K,01,02,03,04,05,SE",K167,1.0,MARC MARDY,718-774-2640,P.S. 167 THE PARKWAY,Elementary,NY,11213,POINT (-73.9343213937331 40.66948792603652),40.669487926,-73.9343213937,6.0,7.0,7.0,4.52483443709,4.13824503311,4.2309602649,4.68046357616,4.15269709544,4.75993377483,8.13194010503,8.88302655385,55.0
4305 7 AVENUE,15.0,15K169 ,K,2.0,BROOKLYN,718-633-9621,15,"0K,01,02,03,04,05,SE",K169,1.0,JOSEPHINE SANTIAGO,718-853-3224,P.S. 169 SUNSET PARK,Elementary,NY,11232,POINT (-74.00186589772653 40.64593855956694),40.6459385596,-74.0018658977,8.0,9.0,9.0,4.31640625,4.345703125,4.2255859375,4.611328125,3.85239491691,4.677734375,6.66201453403,6.68647458268,1624.0
7109 6 AVENUE,20.0,20K170 ,K,2.0,BROOKLYN,718-921-6351,20,"0K,01,02,03,04,05,SE",K170,1.0,Zhen (Tony) Wu,718-748-0333,P.S. 170 LEXINGTON,Elementary,NY,11209,POINT (-74.01883796356213 40.63044660746944),40.6304466075,-74.0188379636,12.0,13.0,13.0,4.36958710977,4.27391742195,4.29305135952,4.63608870968,4.02527805865,4.74672048436,7.71822059233,5.40644744438,1016.0
528 RIDGEWOOD AVENUE,19.0,19K171 ,K,2.0,BROOKLYN,718-827-5834,19,"05,06,07,08,SE",K171,1.0,YOLANDA FUSTANIO,718-647-0111,I.S. 171 ABRAHAM LINCOLN,Junior High-Intermediate-Middle,NY,11208,POINT (-73.86944685024649 40.6859333061307),40.6859333061,-73.8694468502,7.0,8.0,8.0,4.39173680184,4.2874617737,4.26758409786,4.65902140673,3.90199081164,4.74655436447,7.39040828363,8.07967657711,547.0
825 4 AVENUE,15.0,15K172 ,K,2.0,BROOKLYN,718-965-2468,15,"PK,0K,01,02,03,04,05,SE",K172,1.0,Jack Spatola,718-965-4200,P.S. 172 BEACON SCHOOL OF EXCELLENCE,Elementary,NY,11232,POINT (-74.00032945710194 40.6577759174145),40.6577759174,-74.0003294571,8.0,9.0,9.0,4.31640625,4.345703125,4.2255859375,4.611328125,3.85239491691,4.677734375,6.66201453403,6.68647458268,587.0
574 DUMONT AVENUE,19.0,19K174 ,K,2.0,BROOKLYN,718-345-8808,19,"PK,0K,01,02,03,04,05,06,07,08,SE",K174,1.0,INGRID MASON,718-345-1223,P.S. 174 DUMONT,K-8,NY,11207,POINT (-73.89763544695089 40.665579405803),40.6655794058,-73.897635447,7.0,8.0,8.0,4.39173680184,4.2874617737,4.26758409786,4.65902140673,3.90199081164,4.74655436447,7.39040828363,8.07967657711,42.0
1225 69 STREET,20.0,20K176 ,K,2.0,BROOKLYN,718-331-9188,20,"0K,01,02,03,04,05,SE",K176,1.0,ELIZABETH CULKIN,718-236-7755,P.S. 176 OVINGTON,Elementary,NY,11219,POINT (-74.00523445024422 40.62479361301612),40.624793613,-74.0052344502,9.0,10.0,10.0,4.34991974318,4.20224719101,4.19422150883,4.56982343499,4.06902086677,4.65008025682,6.65910094356,6.21263238185,1408.0
346 AVENUE P,21.0,21K177 ,K,2.0,BROOKLYN,718-375-4450,21,"PK,0K,01,02,03,04,05,SE",K177,1.0,SHOSHANA SINGER,718-375-9506,P.S. 177 THE MARLBORO,Elementary,NY,11204,POINT (-73.97447828013732 40.60841080188352),40.6084108019,-73.9744782801,13.0,14.0,14.0,4.37473903967,4.01989528796,4.22779519331,4.61337513062,4.0355276907,4.72413793103,6.49883981342,5.82904349688,953.0
2163 DEAN STREET,23.0,23K178 ,K,2.0,BROOKLYN,718-495-2304,23,"PK,0K,01,02,03,04,05,06,07,08,SE",K178,1.0,JOSEPH FRANTZ HENRY,718-495-7768,P.S. 178 SAINT CLAIR MCKELWAY,K-8,NY,11233,POINT (-73.91535705938369 40.67523016183375),40.6752301618,-73.9153570594,6.0,7.0,7.0,4.52483443709,4.13824503311,4.2309602649,4.68046357616,4.15269709544,4.75993377483,8.13194010503,8.88302655385,364.0
202 AVENUE C,20.0,20K179 ,K,2.0,BROOKLYN,718-871-7484,20,"PK,0K,01,02,03,04,05,SE",K179,1.0,VALERIE JOSEPH,718-438-4010,P.S. 179 KENSINGTON,Elementary,NY,11218,POINT (-73.97729383842996 40.64028083290834),40.6402808329,-73.9772938384,9.0,10.0,10.0,4.34991974318,4.20224719101,4.19422150883,4.56982343499,4.06902086677,4.65008025682,6.65910094356,6.21263238185,939.0
5601 16 AVENUE,20.0,20K180 ,K,2.0,BROOKLYN,718-853-9308,20,"PK,0K,01,02,03,04,05,06,07,08,SE",K180,1.0,GARY WILLIAMS,718-851-8070,P.S. 180 HOMEWOOD,K-8,NY,11204,POINT (-73.98960216717497 40.62668450688346),40.6266845069,-73.9896021672,9.0,10.0,10.0,4.34991974318,4.20224719101,4.19422150883,4.56982343499,4.06902086677,4.65008025682,6.65910094356,6.21263238185,1116.0
1023 NEW YORK AVENUE,17.0,17K181 ,K,2.0,BROOKLYN,718-284-5053,17,"PK,0K,01,02,03,04,05,06,07,08,SE",K181,1.0,LOWELL COLEMAN,718-462-5298,P.S. 181 BROOKLYN,K-8,NY,11203,POINT (-73.94599100996312 40.64819601388587),40.6481960139,-73.94599101,10.0,11.0,11.0,4.42335766423,4.04094631483,4.23406193078,4.60746812386,4.00818926297,4.64539653601,6.41496610377,6.53152013594,846.0
273 NEWPORT STREET,23.0,23K184 ,K,2.0,BROOKLYN,718-385-4655,23,"PK,0K,01,02,03,04,05,06,07,08,SE",K184,1.0,LAMSON LAM,718-495-7775,P.S. 184 NEWPORT,K-8,NY,11212,POINT (-73.9049447188749 40.66020812176897),40.6602081218,-73.9049447189,6.0,7.0,7.0,4.52483443709,4.13824503311,4.2309602649,4.68046357616,4.15269709544,4.75993377483,8.13194010503,8.88302655385,504.0
8601 RIDGE BOULEVARD,20.0,20K185 ,K,2.0,BROOKLYN,718-836-9631,20,"0K,01,02,03,04,05,SE",K185,1.0,KENNETH LLINAS,718-745-6610,P.S. 185 WALTER KASSENBROCK,Elementary,NY,11209,POINT (-74.03359954507474 40.62363456365379),40.6236345637,-74.0335995451,12.0,13.0,13.0,4.36958710977,4.27391742195,4.29305135952,4.63608870968,4.02527805865,4.74672048436,7.71822059233,5.40644744438,663.0
7601 19 AVENUE,20.0,20K186 ,K,2.0,BROOKLYN,718-331-9181,20,"PK,0K,01,02,03,04,05,SE",K186,1.0,Bayan (Ebeid) Cadotte,718-236-7071,P.S. 186 DR. IRVING A GLADSTONE,Elementary,NY,11214,POINT (-73.99460653440202 40.61113114687268),40.6111311469,-73.9946065344,12.0,13.0,13.0,4.36958710977,4.27391742195,4.29305135952,4.63608870968,4.02527805865,4.74672048436,7.71822059233,5.40644744438,995.0
1171 65 STREET,20.0,20K187 ,K,2.0,BROOKLYN,718-236-3638,20,"06,07,08,SE",K187,1.0,JUSTIN BERMAN,718-236-3394,I.S. 187,Junior High-Intermediate-Middle,NY,11219,POINT (-74.00397455115176 40.62784074433547),40.6278407443,-74.0039745512,9.0,10.0,10.0,4.34991974318,4.20224719101,4.19422150883,4.56982343499,4.06902086677,4.65008025682,6.65910094356,6.21263238185,999.0
3314 NEPTUNE AVENUE,21.0,21K188 ,K,2.0,BROOKLYN,718-266-7103,21,"PK,0K,01,02,03,04,05,SE",K188,1.0,Frederick M.  Tudda,718-266-6380,P.S. 188 MICHAEL E. BERDY,Elementary,NY,11224,POINT (-74.00051530338393 40.57694219207443),40.5769421921,-74.0005153034,13.0,14.0,14.0,4.37473903967,4.01989528796,4.22779519331,4.61337513062,4.0355276907,4.72413793103,6.49883981342,5.82904349688,502.0
1100 EAST NEW YORK AVENUE,17.0,17K189 ,K,2.0,BROOKLYN,718-604-1865,17,"0K,01,02,03,04,05,06,07,08,SE",K189,1.0,Ms. Berthe G. Faustin,718-756-0210,P.S. 189 LINCOLN TERRACE,K-8,NY,11212,POINT (-73.92568036584917 40.6654388743523),40.6654388744,-73.9256803658,6.0,7.0,7.0,4.52483443709,4.13824503311,4.2309602649,4.68046357616,4.15269709544,4.75993377483,8.13194010503,8.88302655385,1044.0
590 SHEFFIELD AVENUE,19.0,19K190 ,K,2.0,BROOKLYN,718-345-8765,19,"PK,0K,01,02,03,04,05,SE",K190,1.0,STEPHAUN HILL,718-346-8780,P.S. 190 SHEFFIELD,Elementary,NY,11207,POINT (-73.89471033624645 40.66240246549522),40.6624024655,-73.8947103362,7.0,8.0,8.0,4.39173680184,4.2874617737,4.26758409786,4.65902140673,3.90199081164,4.74655436447,7.39040828363,8.07967657711,176.0
1600 PARK PLACE,17.0,17K191 ,K,2.0,BROOKLYN,718-756-5417,17,"PK,0K,01,02,03,04,05,SE",K191,1.0,Mrs. Elsi Capolongo,718-756-1206,P.S. 191 PAUL ROBESON,Elementary,NY,11233,POINT (-73.92420850250667 40.6718013214321),40.6718013214,-73.9242085025,6.0,7.0,7.0,4.52483443709,4.13824503311,4.2309602649,4.68046357616,4.15269709544,4.75993377483,8.13194010503,8.88302655385,186.0
4715 18 AVENUE,20.0,20K192 ,K,2.0,BROOKLYN,718-871-8721,20,"PK,0K,01,02,03,04,05,06,07,08,SE",K192,1.0,LISET ISAAC,718-633-3061,P.S. 192 BROOKLYN,K-8,NY,11204,POINT (-73.97988747698089 40.62901936349436),40.6290193635,-73.979887477,9.0,10.0,10.0,4.34991974318,4.20224719101,4.19422150883,4.56982343499,4.06902086677,4.65008025682,6.65910094356,6.21263238185,687.0
2515 AVENUE L,22.0,22K193 ,K,2.0,BROOKLYN,718-338-9074,22,"PK,0K,01,02,03,04,05,SE",K193,1.0,Frank A. Cimino,718-338-9011,P.S. 193 GIL HODGES,Elementary,NY,11210,POINT (-73.95026743424302 40.62179398426002),40.6217939843,-73.9502674342,10.0,11.0,11.0,4.42335766423,4.04094631483,4.23406193078,4.60746812386,4.00818926297,4.64539653601,6.41496610377,6.53152013594,866.0
3117 AVENUE W,22.0,22K194 ,K,2.0,BROOKLYN,718-934-0244,22,"PK,0K,01,02,03,04,05,SE",K194,1.0,Mary Zissler-Lynch,718-648-8804,P.S. 194 RAOUL WALLENBERG,Elementary,NY,11229,POINT (-73.93403479897606 40.59719631600311),40.597196316,-73.934034799,13.0,14.0,14.0,4.37473903967,4.01989528796,4.22779519331,4.61337513062,4.0355276907,4.72413793103,6.49883981342,5.82904349688,495.0
131 IRWIN STREET,22.0,22K195 ,K,2.0,BROOKLYN,718-934-0625,22,"PK,0K,01,02,03,04,05",K195,1.0,ARTHUR FORMAN,718-648-9102,P.S. 195 MANHATTAN BEACH,Elementary,NY,11235,POINT (-73.94359825910546 40.57983423833883),40.5798342383,-73.9435982591,13.0,14.0,14.0,4.37473903967,4.01989528796,4.22779519331,4.61337513062,4.0355276907,4.72413793103,6.49883981342,5.82904349688,458.0
207 BUSHWICK AVENUE,14.0,14K196 ,K,2.0,BROOKLYN,718-628-5134,14,"PK,0K,01,02,03,04,05,SE",K196,1.0,Janine Colon,718-497-0139,P.S. 196 TEN EYCK,Elementary,NY,11206,POINT (-73.93972368993947 40.70877009923937),40.7087700992,-73.9397236899,14.0,15.0,15.0,4.23070469799,3.93718592965,4.02181208054,4.53227158424,3.80637049455,4.5788590604,3.61574589668,0.941989999715,347.0
1599 EAST  22 STREET,22.0,22K197 ,K,2.0,BROOKLYN,718-377-7505,22,"PK,0K,01,02,03,04,05,SE",K197,1.0,Rosemarie Barbiere Nicolet*,718-377-7890,P.S. 197 BROOKLYN,Elementary,NY,11210,POINT (-73.95159028143502 40.61258711319206),40.6125871132,-73.9515902814,10.0,11.0,11.0,4.42335766423,4.04094631483,4.23406193078,4.60746812386,4.00818926297,4.64539653601,6.41496610377,6.53152013594,613.0
4105 FARRAGUT ROAD,22.0,22K198 ,K,2.0,BROOKLYN,718-940-0821,22,"PK,0K,01,02,03,04,05,SE",K198,1.0,Joy-Ann Morgan,718-282-4920,P.S. 198 BROOKLYN,Elementary,NY,11210,POINT (-73.93703512599259 40.63720653992786),40.6372065399,-73.937035126,10.0,11.0,11.0,4.42335766423,4.04094631483,4.23406193078,4.60746812386,4.00818926297,4.64539653601,6.41496610377,6.53152013594,476.0
1100 ELM AVENUE,21.0,21K199 ,K,2.0,BROOKLYN,718-336-5562,21,"PK,0K,01,02,03,04,05,SE",K199,1.0,ROSALIA BACARELLA,718-339-1422,P.S. 199 FREDERICK WACHTEL,Elementary,NY,11230,POINT (-73.96308751557039 40.61651494417723),40.6165149442,-73.9630875156,9.0,10.0,10.0,4.34991974318,4.20224719101,4.19422150883,4.56982343499,4.06902086677,4.65008025682,6.65910094356,6.21263238185,501.0
1940 BENSON AVENUE,20.0,20K200 ,K,2.0,BROOKLYN,718-232-3428,20,"PK,0K,01,02,03,04,05,SE",K200,1.0,JAVIER MUNIZ,718-236-5466,P.S. 200 BENSON SCHOOL,Elementary,NY,11214,POINT (-74.00166087716111 40.60304178305015),40.6030417831,-74.0016608772,12.0,13.0,13.0,4.36958710977,4.27391742195,4.29305135952,4.63608870968,4.02527805865,4.74672048436,7.71822059233,5.40644744438,1306.0
8010 12 AVENUE,20.0,20K201 ,K,2.0,BROOKLYN,718-836-1786,20,"06,07,08,SE",K201,1.0,Ms. Madeleine Brennan,718-833-9363,J.H.S. 201 THE DYKER HEIGHTS,Junior High-Intermediate-Middle,NY,11228,POINT (-74.01315863630136 40.61869411180988),40.6186941118,-74.0131586363,12.0,13.0,13.0,4.36958710977,4.27391742195,4.29305135952,4.63608870968,4.02527805865,4.74672048436,7.71822059233,5.40644744438,1474.0
982 HEGEMAN AVENUE,19.0,19K202 ,K,2.0,BROOKLYN,718-927-2173,19,"PK,0K,01,02,03,04,05,06,07,08,SE",K202,1.0,Pauline Smith-Gayle,718-649-7880,P.S. 202 ERNEST S. JENKYNS,K-8,NY,11208,POINT (-73.87637544874119 40.66619838041427),40.6661983804,-73.8763754487,7.0,8.0,8.0,4.39173680184,4.2874617737,4.26758409786,4.65902140673,3.90199081164,4.74655436447,7.39040828363,8.07967657711,492.0
5101 AVENUE M,22.0,22K203 ,K,2.0,BROOKLYN,718-209-9641,22,"PK,0K,01,02,03,04,05,SE",K203,1.0,LISA ESPOSITO,718-241-8488,P.S. 203 FLOYD BENNETT,Elementary,NY,11234,POINT (-73.92569048319528 40.62171540689926),40.6217154069,-73.9256904832,11.0,12.0,12.0,4.42141036534,4.34523809524,4.37021276596,4.65136054422,3.92602040816,4.74808510638,8.06519405428,8.018645945,812.0
8101 15 AVENUE,20.0,20K204 ,K,2.0,BROOKLYN,718-232-9265,20,"PK,0K,01,02,03,04,05,SE",K204,1.0,Mrs. Marie Reilly,718-236-2906,P.S. 204 VINCE LOMBARDI,Elementary,NY,11228,POINT (-74.00657308505171 40.61380467736849),40.6138046774,-74.0065730851,12.0,13.0,13.0,4.36958710977,4.27391742195,4.29305135952,4.63608870968,4.02527805865,4.74672048436,7.71822059233,5.40644744438,1168.0
6701 20 AVENUE,20.0,20K205 ,K,2.0,BROOKLYN,718-331-7299,20,"PK,0K,01,02,03,04,05,SE",K205,1.0,BETH GRATER,718-236-2380,P.S. 205 CLARION,Elementary,NY,11204,POINT (-73.9870819653293 40.61493977934008),40.6149397793,-73.9870819653,9.0,10.0,10.0,4.34991974318,4.20224719101,4.19422150883,4.56982343499,4.06902086677,4.65008025682,6.65910094356,6.21263238185,1181.0
2200 GRAVESEND NECK ROAD,22.0,22K206 ,K,2.0,BROOKLYN,718-332-4986,22,"PK,0K,01,02,03,04,05,06,07,08,SE",K206,1.0,DEIRDRE KEYES,718-743-5598,P.S. 206 JOSEPH F LAMB,K-8,NY,11229,POINT (-73.94853205123755 40.59724909754976),40.5972490975,-73.9485320512,13.0,14.0,14.0,4.37473903967,4.01989528796,4.22779519331,4.61337513062,4.0355276907,4.72413793103,6.49883981342,5.82904349688,1425.0
4011 FILLMORE AVENUE,22.0,22K207 ,K,2.0,BROOKLYN,718-645-8139,22,"PK,0K,01,02,03,04,05,06,07,08,SE",K207,1.0,MARY BOSCO,718-645-8667,P.S. 207 ELIZABETH G. LEARY,K-8,NY,11234,POINT (-73.93017071514141 40.61368725725305),40.6136872573,-73.9301707151,11.0,12.0,12.0,4.42141036534,4.34523809524,4.37021276596,4.65136054422,3.92602040816,4.74808510638,8.06519405428,8.018645945,1272.0
4801 AVENUE D,18.0,18K208 ,K,2.0,BROOKLYN,718-451-0185,18,"PK,0K,01,02,03,04,05,SE",K208,1.0,Ms. Kristy Parris,718-629-1670,P.S. 208 ELSA EBELING,Elementary,NY,11203,POINT (-73.93086600153136 40.64230203773634),40.6423020377,-73.9308660015,10.0,11.0,11.0,4.42335766423,4.04094631483,4.23406193078,4.60746812386,4.00818926297,4.64539653601,6.41496610377,6.53152013594,445.0
2609 EAST  7 STREET,21.0,21K209 ,K,2.0,BROOKLYN,718-743-6361,21,"PK,0K,01,02,03,04,05,06,07,08,SE",K209,1.0,Frances Locurcio,718-743-1954,P.S. 209 MARGARET MEAD,K-8,NY,11235,POINT (-73.96166656693195 40.58674186787838),40.5867418679,-73.9616665669,13.0,14.0,14.0,4.37473903967,4.01989528796,4.22779519331,4.61337513062,4.0355276907,4.72413793103,6.49883981342,5.82904349688,707.0
1001 EAST 100 STREET,18.0,18K211 ,K,2.0,BROOKLYN,718-241-2503,18,"06,07,08,SE",K211,1.0,Buffie Simmons-Peart,718-251-4411,I.S. 211 JOHN WILSON,Junior High-Intermediate-Middle,NY,11236,POINT (-73.89583241305235 40.64325201555681),40.6432520156,-73.8958324131,11.0,12.0,12.0,4.42141036534,4.34523809524,4.37021276596,4.65136054422,3.92602040816,4.74808510638,8.06519405428,8.018645945,590.0
87 BAY  49 STREET,21.0,21K212 ,K,2.0,BROOKLYN,718-266-7080,21,"PK,0K,01,02,03,04,05,SE",K212,1.0,JOSEPHINE MARSELLA,718-266-4841,P.S. 212 LADY DEBORAH MOODY,Elementary,NY,11214,POINT (-73.98559798535801 40.58756239192468),40.5875623919,-73.9855979854,12.0,13.0,13.0,4.36958710977,4.27391742195,4.29305135952,4.63608870968,4.02527805865,4.74672048436,7.71822059233,5.40644744438,689.0
580 HEGEMAN AVENUE,19.0,19K213 ,K,2.0,BROOKLYN,718-272-3446,19,"PK,0K,01,02,03,04,05,SE",K213,1.0,Anne Lee Bernard,718-257-4034,P.S. 213 NEW LOTS,Elementary,NY,11207,POINT (-73.89027462264076 40.66026834036658),40.6602683404,-73.8902746226,7.0,8.0,8.0,4.39173680184,4.2874617737,4.26758409786,4.65902140673,3.90199081164,4.74655436447,7.39040828363,8.07967657711,360.0
2944 PITKIN AVENUE,19.0,19K214 ,K,2.0,BROOKLYN,718-827-5838,19,"PK,0K,01,02,03,04,05,SE",K214,1.0,PATRICIA TUBRIDY,718-647-1740,P.S. 214 MICHAEL FRIEDSAM,Elementary,NY,11208,POINT (-73.8630646177773 40.67627003666303),40.6762700367,-73.8630646178,7.0,8.0,8.0,4.39173680184,4.2874617737,4.26758409786,4.65902140673,3.90199081164,4.74655436447,7.39040828363,8.07967657711,961.0
415 AVENUE S,21.0,21K215 ,K,2.0,BROOKLYN,718-998-7235,21,"PK,0K,01,02,03,04,05,SE",K215,1.0,ANTONELLA BOVE,718-339-2464,P.S.  215  MORRIS H.  WEISS,Elementary,NY,11223,POINT (-73.97007643025692 40.60233227055375),40.6023322706,-73.9700764303,13.0,14.0,14.0,4.37473903967,4.01989528796,4.22779519331,4.61337513062,4.0355276907,4.72413793103,6.49883981342,5.82904349688,932.0
350 AVENUE X,21.0,21K216 ,K,2.0,BROOKLYN,718-645-2610,21,"PK,0K,01,02,03,04,05,SE",K216,1.0,CELIA KAPLINSKY,718-645-2862,P.S. 216 ARTURO TOSCANINI,Elementary,NY,11223,POINT (-73.96970861455868 40.59032272026749),40.5903227203,-73.9697086146,13.0,14.0,14.0,4.37473903967,4.01989528796,4.22779519331,4.61337513062,4.0355276907,4.72413793103,6.49883981342,5.82904349688,688.0
1100 NEWKIRK AVENUE,22.0,22K217 ,K,2.0,BROOKLYN,718-434-8170,22,"PK,0K,01,02,03,04,05,SE",K217,1.0,FRANCA CONTI,718-434-6960,P.S. 217 COLONEL DAVID MARCUS SCHOOL,Elementary,NY,11230,POINT (-73.96641001094068 40.63372424042328),40.6337242404,-73.9664100109,9.0,10.0,10.0,4.34991974318,4.20224719101,4.19422150883,4.56982343499,4.06902086677,4.65008025682,6.65910094356,6.21263238185,1214.0
370 FOUNTAIN AVENUE,19.0,19K218 ,K,2.0,BROOKLYN,718-827-5839,19,"06,07,08,SE",K218,1.0,Alison Breedy,718-647-9050,J.H.S. 218 JAMES P. SINNOTT,Junior High-Intermediate-Middle,NY,11208,POINT (-73.87441696645739 40.67032509048048),40.6703250905,-73.8744169665,7.0,8.0,8.0,4.39173680184,4.2874617737,4.26758409786,4.65902140673,3.90199081164,4.74655436447,7.39040828363,8.07967657711,419.0
1060 CLARKSON AVENUE,18.0,18K219 ,K,2.0,BROOKLYN,718-345-3065,18,"PK,0K,01,02,03,04,05,SE",K219,1.0,Ms. Winsome Smith,718-342-0493,P.S. 219 KENNEDY-KING,Elementary,NY,11212,POINT (-73.922628581757 40.65913399486843),40.6591339949,-73.9226285818,6.0,7.0,7.0,4.52483443709,4.13824503311,4.2309602649,4.68046357616,4.15269709544,4.75993377483,8.13194010503,8.88302655385,557.0
4812 9 AVENUE,20.0,20K220 ,K,2.0,BROOKLYN,718-871-7466,20,"06,07,08,SE",K220,1.0,LORETTA WITEK,718-633-8200,J.H.S. 220 JOHN J. PERSHING,Junior High-Intermediate-Middle,NY,11220,POINT (-74.00092526767307 40.64080630122179),40.6408063012,-74.0009252677,8.0,9.0,9.0,4.31640625,4.345703125,4.2255859375,4.611328125,3.85239491691,4.677734375,6.66201453403,6.68647458268,1435.0
791 EMPIRE BOULEVARD,17.0,17K221 ,K,2.0,BROOKLYN,718-953-2657,17,"PK,0K,01,02,03,04,05,SE",K221,1.0,Clara Moodie-Kirkland,718-756-0122,P.S. 221 TOUSSAINT L'OUVERTURE,Elementary,NY,11213,POINT (-73.93608095779568 40.66392448329438),40.6639244833,-73.9360809578,6.0,7.0,7.0,4.52483443709,4.13824503311,4.2309602649,4.68046357616,4.15269709544,4.75993377483,8.13194010503,8.88302655385,401.0
3301 QUENTIN ROAD,22.0,22K222 ,K,2.0,BROOKLYN,718-339-2107,22,"PK,0K,01,02,03,04,05,SE",K222,1.0,LOUISE BLAKE,718-998-4298,P.S. 222 KATHERINE R. SNYDER,Elementary,NY,11234,POINT (-73.93885231507358 40.61368100654171),40.6136810065,-73.9388523151,11.0,12.0,12.0,4.42141036534,4.34523809524,4.37021276596,4.65136054422,3.92602040816,4.74808510638,8.06519405428,8.018645945,883.0
4200 16 AVENUE,20.0,20K223 ,K,2.0,BROOKLYN,718-871-7477,20,"06,07,08,SE",K223,1.0,ANDREW FRANK,718-438-0155,J.H.S. 223 THE MONTAUK,Junior High-Intermediate-Middle,NY,11204,POINT (-73.98199690897241 40.63484283034469),40.6348428303,-73.981996909,9.0,10.0,10.0,4.34991974318,4.20224719101,4.19422150883,4.56982343499,4.06902086677,4.65008025682,6.65910094356,6.21263238185,994.0
757 WORTMAN AVENUE,19.0,19K224 ,K,2.0,BROOKLYN,718-827-5840,19,"PK,0K,01,02,03,04,05,06,SE",K224,1.0,GEORGE ANDREWS,718-235-3600,P.S. 224 HALE A. WOODRUFF,Elementary,NY,11208,POINT (-73.86596645148354 40.66489605825959),40.6648960583,-73.8659664515,7.0,8.0,8.0,4.39173680184,4.2874617737,4.26758409786,4.65902140673,3.90199081164,4.74655436447,7.39040828363,8.07967657711,505.0
1075 OCEAN VIEW AVENUE,21.0,21K225 ,K,2.0,BROOKLYN,718-743-7096,21,"PK,0K,01,02,03,04,05,06,07,08,SE",K225,1.0,JOSEPH MONTEBELLO,718-743-9793,P.S. K225 - THE EILEEN E. ZAGLIN,K-8,NY,11235,POINT (-73.95610318024896 40.57990534349084),40.5799053435,-73.9561031802,13.0,14.0,14.0,4.37473903967,4.01989528796,4.22779519331,4.61337513062,4.0355276907,4.72413793103,6.49883981342,5.82904349688,1018.0
6006 23 AVENUE,21.0,21K226 ,K,2.0,BROOKLYN,718-256-0384,21,"PK,0K,01,02,03,04,05,06,07,08,SE",K226,1.0,SHERRY TANNENBAUM,718-256-1118,P.S. 226 ALFRED DE B.MASON,K-8,NY,11204,POINT (-73.97679048329903 40.61521497592119),40.6152149759,-73.9767904833,9.0,10.0,10.0,4.34991974318,4.20224719101,4.19422150883,4.56982343499,4.06902086677,4.65008025682,6.65910094356,6.21263238185,1006.0
6500 16 AVENUE,20.0,20K227 ,K,2.0,BROOKLYN,718-234-6204,20,"06,07,08,SE",K227,1.0,Brenda D. Champion,718-256-8218,J.H.S. 227 EDWARD B. SHALLOW,Junior High-Intermediate-Middle,NY,11204,POINT (-73.9955295800281 40.62188169846695),40.6218816985,-73.99552958,9.0,10.0,10.0,4.34991974318,4.20224719101,4.19422150883,4.56982343499,4.06902086677,4.65008025682,6.65910094356,6.21263238185,1276.0
228 AVENUE S,21.0,21K228 ,K,2.0,BROOKLYN,718-376-1209,21,"06,07,08,SE",K228,1.0,DOMINICK D'ANGELO,718-375-7635,I.S. 228 DAVID A. BOODY,Junior High-Intermediate-Middle,NY,11223,POINT (-73.97687589622326 40.60105330831921),40.6010533083,-73.9768758962,13.0,14.0,14.0,4.37473903967,4.01989528796,4.22779519331,4.61337513062,4.0355276907,4.72413793103,6.49883981342,5.82904349688,1362.0
1400 BENSON AVENUE,20.0,20K229 ,K,2.0,BROOKLYN,718-331-8173,20,"PK,0K,01,02,03,04,05,06,07,SE",K229,1.0,Robert Zappulla,718-236-5447,P.S. 229 DYKER,K-8,NY,11228,POINT (-74.01329554861476 40.61060777494216),40.6106077749,-74.0132955486,12.0,13.0,13.0,4.36958710977,4.27391742195,4.29305135952,4.63608870968,4.02527805865,4.74672048436,7.71822059233,5.40644744438,1195.0
1 ALBEMARLE ROAD,15.0,15K230 ,K,2.0,BROOKLYN,718-871-2624,15,"PK,0K,01,02,03,04,05,SE",K230,1.0,SHARON FIDEN,718-437-6135,P.S. 230 DORIS L. COHEN,Elementary,NY,11218,POINT (-73.98045048272665 40.64530395336363),40.6453039534,-73.9804504827,9.0,10.0,10.0,4.34991974318,4.20224719101,4.19422150883,4.56982343499,4.06902086677,4.65008025682,6.65910094356,6.21263238185,1210.0
5601 16 AVENUE,75.0,75K231 ,K,2.0,BROOKLYN,718-853-5388,20,"0K,01,02,03,04,05,06,07,08,SE",K231,1.0,Christina Foti,718-853-1884,P.S. K231,K-8,NY,11204,POINT (-73.98944578731995 40.62682215570805),40.6268221557,-73.9894457873,9.0,10.0,10.0,4.34991974318,4.20224719101,4.19422150883,4.56982343499,4.06902086677,4.65008025682,6.65910094356,6.21263238185,337.0
9301 AVENUE B,18.0,18K233 ,K,2.0,BROOKLYN,718-345-3078,18,"PK,0K,01,02,03,04,05,SE",K233,1.0,DENEAN STEPHENS-SPELLMAN,718-346-8103,P.S. 233 LANGSTON HUGHES,Elementary,NY,11236,POINT (-73.9140108709596 40.6513917844561),40.6513917845,-73.914010871,11.0,12.0,12.0,4.42141036534,4.34523809524,4.37021276596,4.65136054422,3.92602040816,4.74808510638,8.06519405428,8.018645945,511.0
1875 EAST  17 STREET,22.0,22K234 ,K,2.0,BROOKLYN,718-645-7759,22,"06,07,08,SE",K234,1.0,SUSAN SCHAEFFER,718-645-1334,J.H.S. 234 ARTHUR W. CUNNINGHAM,Junior High-Intermediate-Middle,NY,11229,POINT (-73.95518844619107 40.60424267230248),40.6042426723,-73.9551884462,13.0,14.0,14.0,4.37473903967,4.01989528796,4.22779519331,4.61337513062,4.0355276907,4.72413793103,6.49883981342,5.82904349688,1988.0
525 LENOX ROAD,18.0,18K235 ,K,2.0,BROOKLYN,718-773-0048,18,"PK,0K,01,02,03,04,05,06,07,08,SE",K235,1.0,LISA SOLITARIO,718-773-4869,P.S. 235 LENOX,K-8,NY,11203,POINT (-73.94087646642735 40.6549422225823),40.6549422226,-73.9408764664,10.0,11.0,11.0,4.42335766423,4.04094631483,4.23406193078,4.60746812386,4.00818926297,4.64539653601,6.41496610377,6.53152013594,1274.0
6302 AVENUE U,22.0,22K236 ,K,2.0,BROOKLYN,718-241-6630,22,"PK,0K,01,02,03,04,05,SE",K236,1.0,Mary Theresa Nelson,718-444-6969,P.S. 236 MILL BASIN,Elementary,NY,11234,POINT (-73.91257994112371 40.61588459755697),40.6158845976,-73.9125799411,11.0,12.0,12.0,4.42141036534,4.34523809524,4.37021276596,4.65136054422,3.92602040816,4.74808510638,8.06519405428,8.018645945,579.0
1633 EAST  8 STREET,21.0,21K238 ,K,2.0,BROOKLYN,718-998-4351,21,"PK,0K,01,02,03,04,05,06,07,08,SE",K238,1.0,Harla Joy Musoff-Weiss,718-339-4355,P.S. 238 ANNE SULLIVAN,K-8,NY,11223,POINT (-73.9647979435894 40.60876960080441),40.6087696008,-73.9647979436,13.0,14.0,14.0,4.37473903967,4.01989528796,4.22779519331,4.61337513062,4.0355276907,4.72413793103,6.49883981342,5.82904349688,556.0
2401 NEPTUNE AVENUE,21.0,21K239 ,K,2.0,BROOKLYN,718-266-1693,21,"06,07,08,SE",K239,1.0,CAROL MOORE,718-266-0814,MARK TWAIN I.S. 239 FOR THE GIFTED & TALENTED,Junior High-Intermediate-Middle,NY,11224,POINT (-73.99237818324238 40.57850594516882),40.5785059452,-73.9923781832,13.0,14.0,14.0,4.37473903967,4.01989528796,4.22779519331,4.61337513062,4.0355276907,4.72413793103,6.49883981342,5.82904349688,1340.0
2500 NOSTRAND AVENUE,22.0,22K240 ,K,2.0,BROOKLYN,718-253-0356,22,"06,07,08,SE",K240,1.0,Elena S. O'Sullivan,718-253-3700,ANDRIES HUDDE,Junior High-Intermediate-Middle,NY,11210,POINT (-73.94657669818656 40.62372994104628),40.623729941,-73.9465766982,10.0,11.0,11.0,4.42335766423,4.04094631483,4.23406193078,4.60746812386,4.00818926297,4.64539653601,6.41496610377,6.53152013594,828.0
976 PRESIDENT STREET,17.0,17K241 ,K,2.0,BROOKLYN,718-230-5468,17,"PK,0K,01,02,03,04,05,SE",K241,1.0,Frantz Lucius,718-636-4725,P.S. 241 EMMA L. JOHNSTON,Elementary,NY,11225,POINT (-73.96039300832879 40.66902616159324),40.6690261616,-73.9603930083,10.0,11.0,11.0,4.42335766423,4.04094631483,4.23406193078,4.60746812386,4.00818926297,4.64539653601,6.41496610377,6.53152013594,552.0
1580 DEAN STREET,16.0,16K243 ,K,2.0,BROOKLYN,718-778-0492,16,"PK,0K,01,02,03,04,05,SE",K243,1.0,KAREN HAMBRIGHT-GLOVE,718-953-1658,P.S. 243 WEEKSVILLE,Elementary,NY,11213,POINT (-73.93558031216847 40.67583802915924),40.6758380292,-73.9355803122,6.0,7.0,7.0,4.52483443709,4.13824503311,4.2309602649,4.68046357616,4.15269709544,4.75993377483,8.13194010503,8.88302655385,272.0
5404 TILDEN AVENUE,18.0,18K244 ,K,2.0,BROOKLYN,718-345-3083,18,"PK,0K,01,02,03,04,05,SE",K244,1.0,Ms. Grace Alesia,718-346-6240,P.S. 244 RICHARD R. GREEN,Elementary,NY,11203,POINT (-73.92564988117174 40.64820522928453),40.6482052293,-73.9256498812,10.0,11.0,11.0,4.42335766423,4.04094631483,4.23406193078,4.60746812386,4.00818926297,4.64539653601,6.41496610377,6.53152013594,610.0
249 EAST 17TH STREET,22.0,22K245 ,K,2.0,BROOKLYN,718-856-0646,22,"PK,0K,01,02,03,04,05,SE",K245,1.0,Pat Kannengieser,718-284-2330,P.S. 245,Elementary,NY,11226,POINT (-73.96291411007195 40.64494564201264),40.644945642,-73.9629141101,10.0,11.0,11.0,4.42335766423,4.04094631483,4.23406193078,4.60746812386,4.00818926297,4.64539653601,6.41496610377,6.53152013594,315.0
72 VERONICA PLACE,17.0,17K246 ,K,2.0,BROOKLYN,718-284-6429,17,"06,07,08,SE",K246,1.0,BENTLY WARRINGTON,718-282-5230,M.S. 246 WALT WHITMAN,Junior High-Intermediate-Middle,NY,11226,POINT (-73.95305919576303 40.64853919475023),40.6485391948,-73.9530591958,10.0,11.0,11.0,4.42335766423,4.04094631483,4.23406193078,4.60746812386,4.00818926297,4.64539653601,6.41496610377,6.53152013594,476.0
7000 21 AVENUE,20.0,20K247 ,K,2.0,BROOKLYN,718-331-8563,20,"PK,0K,01,02,03,04,05,SE",K247,1.0,Christopher E. Ogno,718-236-4205,P.S. 247 BROOKLYN,Elementary,NY,11204,POINT (-73.98714404974559 40.6122327036718),40.6122327037,-73.9871440497,9.0,10.0,10.0,4.34991974318,4.20224719101,4.19422150883,4.56982343499,4.06902086677,4.65008025682,6.65910094356,6.21263238185,820.0
18 MARLBOROUGH ROAD,17.0,17K249 ,K,2.0,BROOKLYN,718-284-5146,17,"PK,0K,01,02,03,SE",K249,1.0,Ms. Elisa Brown,718-282-8828,P.S. 249 THE CATON,Elementary,NY,11226,POINT (-73.96634111947019 40.64970986981068),40.6497098698,-73.9663411195,10.0,11.0,11.0,4.42335766423,4.04094631483,4.23406193078,4.60746812386,4.00818926297,4.64539653601,6.41496610377,6.53152013594,894.0
108 MONTROSE AVENUE,14.0,14K250 ,K,2.0,BROOKLYN,718-302-2314,14,"PK,0K,01,02,03,04,05,SE",K250,1.0,NORA BARNES,718-384-0889,P.S. 250 GEORGE H. LINDSAY,Elementary,NY,11206,POINT (-73.94526497206186 40.70687277616224),40.7068727762,-73.9452649721,14.0,15.0,15.0,4.23070469799,3.93718592965,4.02181208054,4.53227158424,3.80637049455,4.5788590604,3.61574589668,0.941989999715,633.0
1037 EAST  54 STREET,22.0,22K251 ,K,2.0,BROOKLYN,718-241-3200,22,"PK,0K,01,02,03,04,05,SE",K251,1.0,STEVEN BOYER,718-251-4110,P.S. 251 PAEDERGAT,Elementary,NY,11234,POINT (-73.92402751186734 40.63126351306583),40.6312635131,-73.9240275119,11.0,12.0,12.0,4.42141036534,4.34523809524,4.37021276596,4.65136054422,3.92602040816,4.74808510638,8.06519405428,8.018645945,597.0
601 OCEANVIEW AVENUE,21.0,21K253 ,K,2.0,BROOKLYN,718-743-7194,21,"PK,0K,01,02,03,04,05,SE",K253,1.0,Lisa Speroni,718-332-3331,P.S. 253,Elementary,NY,11235,POINT (-73.96185072488397 40.57988706561519),40.5798870656,-73.9618507249,13.0,14.0,14.0,4.37473903967,4.01989528796,4.22779519331,4.61337513062,4.0355276907,4.72413793103,6.49883981342,5.82904349688,878.0
1801 AVENUE Y,22.0,22K254 ,K,2.0,BROOKLYN,718-332-4477,22,"PK,0K,01,02,03,04,05,SE",K254,1.0,LINDA ALHONOTE,718-743-0890,P.S. 254 DAG HAMMARSKJOLD,Elementary,NY,11235,POINT (-73.95147481404463 40.59070799415146),40.5907079942,-73.951474814,13.0,14.0,14.0,4.37473903967,4.01989528796,4.22779519331,4.61337513062,4.0355276907,4.72413793103,6.49883981342,5.82904349688,781.0
1866 EAST  17 STREET,22.0,22K255 ,K,2.0,BROOKLYN,718-627-0626,22,"PK,0K,01,02,03,04,05,SE",K255,1.0,Linda L. Singer,718-376-8494,P.S. 255 BARBARA REING SCHOOL,Elementary,NY,11229,POINT (-73.95579899665067 40.60419488992641),40.6041948899,-73.9557989967,13.0,14.0,14.0,4.37473903967,4.01989528796,4.22779519331,4.61337513062,4.0355276907,4.72413793103,6.49883981342,5.82904349688,920.0
114 KOSCIUSKO STREET,13.0,13K256 ,K,2.0,BROOKLYN,718-783-7384,13,"PK,0K,01,02,03,04,05,SE",K256,1.0,SHARYN HEMPHILL,718-857-9820,P.S. 256 BENJAMIN BANNEKER,Elementary,NY,11216,POINT (-73.94960723722913 40.69061341595326),40.690613416,-73.9496072372,6.0,7.0,7.0,4.52483443709,4.13824503311,4.2309602649,4.68046357616,4.15269709544,4.75993377483,8.13194010503,8.88302655385,291.0
60 COOK STREET,14.0,14K257 ,K,2.0,BROOKLYN,718-387-8115,14,"PK,0K,01,02,03,04,05,SE",K257,1.0,Brian Leavy-DeVale,718-384-7128,P.S. 257 JOHN F. HYLAN,Elementary,NY,11206,POINT (-73.94162196003639 40.70268329321878),40.7026832932,-73.94162196,14.0,15.0,15.0,4.23070469799,3.93718592965,4.02181208054,4.53227158424,3.80637049455,4.5788590604,3.61574589668,0.941989999715,666.0
7305 FT HAMILTON PARKWAY,20.0,20K259 ,K,2.0,BROOKLYN,718-833-3419,20,"06,07,08,SE",K259,1.0,JANICE GEARY,718-833-1000,J.H.S. 259 WILLIAM MCKINLEY,Junior High-Intermediate-Middle,NY,11228,POINT (-74.01504810746081 40.62634383382444),40.6263438338,-74.0150481075,12.0,13.0,13.0,4.36958710977,4.27391742195,4.29305135952,4.63608870968,4.02527805865,4.74672048436,7.71822059233,5.40644744438,1617.0
314 PACIFIC STREET,15.0,15K261 ,K,2.0,BROOKLYN,718-875-9503,15,"PK,0K,01,02,03,04,05,SE",K261,1.0,ZIPPORIAH MILLS,718-330-9275,P.S. 261 PHILIP LIVINGSTON,Elementary,NY,11201,POINT (-73.98826331786418 40.68719756874497),40.6871975687,-73.9882633179,5.0,6.0,6.0,4.32936507937,3.98543046358,4.09788359788,4.56821192053,4.0,4.63612217795,5.30194273408,3.9833051145,797.0
500 MACON STREET,16.0,16K262 ,K,2.0,BROOKLYN,718-453-0679,16,"PK,0K,01,02,03,04,05,06,SE",K262,1.0,JOELETHA FERGUSON,718-453-0780,P.S. 262 EL HAJJ MALIK EL SHABAZZ ELEMENTARY SCHOO,Elementary,NY,11233,POINT (-73.92955484576784 40.68311093815794),40.6831109382,-73.9295548458,6.0,7.0,7.0,4.52483443709,4.13824503311,4.2309602649,4.68046357616,4.15269709544,4.75993377483,8.13194010503,8.88302655385,437.0
101 PARK AVENUE,13.0,13K265 ,K,2.0,BROOKLYN,718-834-6776,13,"06,07,08,09,10,11,12,SE",K265,1.0,PAULA HOLMES,718-834-6760,DR. SUSAN S. MCKINNEY SECONDARY SCHOOL OF THE ARTS,Secondary School,NY,11205,POINT (-73.97594841353096 40.69675603587866),40.6967560359,-73.9759484135,5.0,6.0,6.0,4.32936507937,3.98543046358,4.09788359788,4.56821192053,4.0,4.63612217795,5.30194273408,3.9833051145,427.0
62 PARK PLACE,13.0,13K266 ,K,2.0,BROOKLYN,718-857-2347,13,"06,07,08,SE",K266,1.0,MICHELE ROBINSON,718-857-2291,M.S. K266 - PARK PLACE COMMUNITY MIDDLE SCHOOL,Junior High-Intermediate-Middle,NY,11217,POINT (-73.97641549001307 40.67879188645532),40.6787918865,-73.97641549,5.0,6.0,6.0,4.32936507937,3.98543046358,4.09788359788,4.56821192053,4.0,4.63612217795,5.30194273408,3.9833051145,130.0
800 GATES AVENUE,16.0,16K267 ,K,2.0,BROOKLYN,718-574-2320,16,"06,07,08,SE",K267,1.0,PATRICIA KING,718-574-2318,"M.S. 267 MATH, SCIENCE & TECHNOLOGY",Junior High-Intermediate-Middle,NY,11221,POINT (-73.93275430382492 40.6880615265423),40.6880615265,-73.9327543038,14.0,15.0,15.0,4.23070469799,3.93718592965,4.02181208054,4.53227158424,3.80637049455,4.5788590604,3.61574589668,0.941989999715,182.0
133 EAST  53 STREET,18.0,18K268 ,K,2.0,BROOKLYN,718-493-7448,18,"PK,0K,01,02,03,04,05,SE",K268,1.0,Vangela Kirton,718-773-5332,P.S. 268 EMMA LAZARUS,Elementary,NY,11203,POINT (-73.92770712432706 40.65713920949841),40.6571392095,-73.9277071243,10.0,11.0,11.0,4.42335766423,4.04094631483,4.23406193078,4.60746812386,4.00818926297,4.64539653601,6.41496610377,6.53152013594,429.0
1957 NOSTRAND AVENUE,22.0,22K269 ,K,2.0,BROOKLYN,718-940-3098,22,"03,04,05,SE",K269,1.0,PHYLLIS CORBIN,718-941-2800,P.S. 269 NOSTRAND,Elementary,NY,11210,POINT (-73.94782864241652 40.63773535489893),40.6377353549,-73.9478286424,10.0,11.0,11.0,4.42335766423,4.04094631483,4.23406193078,4.60746812386,4.00818926297,4.64539653601,6.41496610377,6.53152013594,390.0
241 EMERSON PLACE,13.0,13K270 ,K,2.0,BROOKLYN,718-622-3370,13,"PK,0K,01,02,03,04,05,SE",K270,1.0,MITRA LUTCHMAN,718-622-2443,P.S. 270 JOHANN DEKALB,Elementary,NY,11205,POINT (-73.96143178341896 40.69109762687505),40.6910976269,-73.9614317834,5.0,6.0,6.0,4.32936507937,3.98543046358,4.09788359788,4.56821192053,4.0,4.63612217795,5.30194273408,3.9833051145,139.0
101-24 SEAVIEW AVENUE,18.0,18K272 ,K,2.0,BROOKLYN,718-241-5549,18,"PK,0K,01,02,03,04,05,SE",K272,1.0,DAKOTA KEYES,718-241-1300,P.S. 272 CURTIS ESTABROOK,Elementary,NY,11236,POINT (-73.88617383266718 40.63565872954432),40.6356587295,-73.8861738327,11.0,12.0,12.0,4.42141036534,4.34523809524,4.37021276596,4.65136054422,3.92602040816,4.74808510638,8.06519405428,8.018645945,494.0
923 JEROME STREET,19.0,19K273 ,K,2.0,BROOKLYN,718-927-2230,19,"0K,01,02,03,04,05,SE",K273,1.0,MELESSA AVERY,718-649-5739,P.S. 273 WORTMAN,Elementary,NY,11207,POINT (-73.87905747347965 40.65824122929092),40.6582412293,-73.8790574735,7.0,8.0,8.0,4.39173680184,4.2874617737,4.26758409786,4.65902140673,3.90199081164,4.74655436447,7.39040828363,8.07967657711,351.0
800 BUSHWICK AVENUE,32.0,32K274 ,K,2.0,BROOKLYN,718-574-1059,32,"PK,0K,01,02,03,04,05,SE",K274,1.0,Maritza Ollivierra-Jones,718-574-0273,P.S. 274 KOSCIUSKO,Elementary,NY,11221,POINT (-73.92787580784338 40.69451886542582),40.6945188654,-73.9278758078,14.0,15.0,15.0,4.23070469799,3.93718592965,4.02181208054,4.53227158424,3.80637049455,4.5788590604,3.61574589668,0.941989999715,503.0
1070 EAST  83 STREET,18.0,18K276 ,K,2.0,BROOKLYN,718-241-5560,18,"PK,0K,01,02,03,04,05,SE",K276,1.0,Yasmine Fidelia,718-241-5757,P.S. 276 LOUIS MARSHALL,Elementary,NY,11236,POINT (-73.90799551383141 40.63376777119231),40.6337677712,-73.9079955138,11.0,12.0,12.0,4.42141036534,4.34523809524,4.37021276596,4.65136054422,3.92602040816,4.74808510638,8.06519405428,8.018645945,688.0
2529 GERRITSEN AVENUE,22.0,22K277 ,K,2.0,BROOKLYN,718-368-0920,22,"PK,0K,01,02,03,04,05,SE",K277,1.0,Jeanne M. Fish,718-743-6689,P.S. 277 GERRITSEN BEACH,Elementary,NY,11229,POINT (-73.92802076918632 40.59590668748832),40.5959066875,-73.9280207692,11.0,12.0,12.0,4.42141036534,4.34523809524,4.37021276596,4.65136054422,3.92602040816,4.74808510638,8.06519405428,8.018645945,442.0
1925 STUART STREET,22.0,22K278 ,K,2.0,BROOKLYN,718-998-7324,22,"06,07,08,SE",K278,1.0,DEBRA GAROFALO,718-375-3523,J.H.S. 278 MARINE PARK,Junior High-Intermediate-Middle,NY,11229,POINT (-73.93856789087886 40.6065523248962),40.6065523249,-73.9385678909,13.0,14.0,14.0,4.37473903967,4.01989528796,4.22779519331,4.61337513062,4.0355276907,4.72413793103,6.49883981342,5.82904349688,922.0
1070 EAST 104 STREET,18.0,18K279 ,K,2.0,BROOKLYN,718-241-5581,18,"PK,0K,01,02,03,04,05,SE",K279,1.0,LORENZO CHAMBERS,718-444-4316,P.S. 279 HERMAN SCHREIBER,Elementary,NY,11236,POINT (-73.89261920021997 40.64419306117146),40.6441930612,-73.8926192002,11.0,12.0,12.0,4.42141036534,4.34523809524,4.37021276596,4.65136054422,3.92602040816,4.74808510638,8.06519405428,8.018645945,478.0
8787 24 AVENUE,21.0,21K281 ,K,2.0,BROOKLYN,718-996-4186,21,"06,07,08,SE",K281,1.0,STEPHEN ROSENBLUM,718-996-6706,I.S. 281 JOSEPH B CAVALLARO,Junior High-Intermediate-Middle,NY,11214,POINT (-73.99377451458376 40.59461804344689),40.5946180434,-73.9937745146,12.0,13.0,13.0,4.36958710977,4.27391742195,4.29305135952,4.63608870968,4.02527805865,4.74672048436,7.71822059233,5.40644744438,1160.0
180 6 AVENUE,13.0,13K282 ,K,2.0,BROOKLYN,718-622-3471,13,"PK,0K,01,02,03,04,05,06,07,08,SE",K282,1.0,MAGALIE ALEXIS,718-622-1626,P.S. 282 PARK SLOPE,K-8,NY,11217,POINT (-73.9777433554803 40.67655932186323),40.6765593219,-73.9777433555,5.0,6.0,6.0,4.32936507937,3.98543046358,4.09788359788,4.56821192053,4.0,4.63612217795,5.30194273408,3.9833051145,892.0
213 OSBORN STREET,23.0,23K284 ,K,2.0,BROOKLYN,718-495-7839,23,"PK,0K,01,02,03,04,05,06,07,08,SE",K284,1.0,SHENEAN LINDSAY,718-495-7791,P.S. 284 LEW WALLACE,K-8,NY,11212,POINT (-73.90756182981356 40.66688681066223),40.6668868107,-73.9075618298,6.0,7.0,7.0,4.52483443709,4.13824503311,4.2309602649,4.68046357616,4.15269709544,4.75993377483,8.13194010503,8.88302655385,535.0
5909 BEVERLY ROAD,18.0,18K285 ,K,2.0,BROOKLYN,718-451-0229,18,"06,07,08,SE",K285,1.0,Mr. Frederick A. Underwood,718-451-2200,I.S. 285 MEYER LEVIN,Junior High-Intermediate-Middle,NY,11203,POINT (-73.92062429171554 40.64716471188549),40.6471647119,-73.9206242917,10.0,11.0,11.0,4.42335766423,4.04094631483,4.23406193078,4.60746812386,4.00818926297,4.64539653601,6.41496610377,6.53152013594,704.0
50 NAVY STREET,13.0,13K287 ,K,2.0,BROOKLYN,718-834-6766,13,"PK,0K,01,02,03,04,05,SE",K287,1.0,Ms. Michele Rawlins,718-834-4745,P.S. 287 BAILEY K. ASHFORD,Elementary,NY,11201,POINT (-73.98086870499317 40.69805392347104),40.6980539235,-73.980868705,5.0,6.0,6.0,4.32936507937,3.98543046358,4.09788359788,4.56821192053,4.0,4.63612217795,5.30194273408,3.9833051145,198.0
2950 WEST  25 STREET,21.0,21K288 ,K,2.0,BROOKLYN,718-449-7682,21,"PK,0K,01,02,03,04,05,06,07,08,SE",K288,1.0,Joelene-Lynette Kinard,718-449-8000,P.S. 288 THE SHIRLEY TANYHILL,K-8,NY,11224,POINT (-73.99226103855683 40.57427870255363),40.5742787026,-73.9922610386,13.0,14.0,14.0,4.37473903967,4.01989528796,4.22779519331,4.61337513062,4.0355276907,4.72413793103,6.49883981342,5.82904349688,601.0
900 ST MARKS AVENUE,17.0,17K289 ,K,2.0,BROOKLYN,718-467-3735,17,"PK,0K,01,02,03,04,05,SE",K289,1.0,Mr. Dennis O. Jeffers,718-493-3824,P.S. 289 GEORGE V. BROWER,Elementary,NY,11213,POINT (-73.94201484157176 40.67451523573484),40.6745152357,-73.9420148416,6.0,7.0,7.0,4.52483443709,4.13824503311,4.2309602649,4.68046357616,4.15269709544,4.75993377483,8.13194010503,8.88302655385,396.0
135 SCHENCK AVENUE,19.0,19K290 ,K,2.0,BROOKLYN,718-827-5842,19,"0K,01,02,03,04,05,SE",K290,1.0,WILLENA GEORGE,718-647-1113,P.S. 290 JUAN MOREL CAMPOS,Elementary,NY,11207,POINT (-73.88950292794478 40.67814982422133),40.6781498242,-73.8895029279,7.0,8.0,8.0,4.39173680184,4.2874617737,4.26758409786,4.65902140673,3.90199081164,4.74655436447,7.39040828363,8.07967657711,591.0
231 PALMETTO STREET,32.0,32K291 ,K,2.0,BROOKLYN,718-574-1360,32,"06,07,08,SE",K291,1.0,SEAN WALSH,718-574-0361,J.H.S. 291 ROLAND HAYES,Junior High-Intermediate-Middle,NY,11221,POINT (-73.9154344591774 40.69550126656138),40.6955012666,-73.9154344592,14.0,15.0,15.0,4.23070469799,3.93718592965,4.02181208054,4.53227158424,3.80637049455,4.5788590604,3.61574589668,0.941989999715,349.0
301 VERMONT STREET,19.0,19K292 ,K,2.0,BROOKLYN,718-345-3327,19,"06,07,08,SE",K292,1.0,EVERETT HUGHES,718-498-6562,J.H.S. 292 MARGARET S. DOUGLAS,Junior High-Intermediate-Middle,NY,11207,POINT (-73.89330011101882 40.67155731312751),40.6715573131,-73.893300111,7.0,8.0,8.0,4.39173680184,4.2874617737,4.26758409786,4.65902140673,3.90199081164,4.74655436447,7.39040828363,8.07967657711,623.0
330 18 STREET,15.0,15K295 ,K,2.0,BROOKLYN,718-965-0603,15,"PK,0K,01,02,03,04,05,SE",K295,1.0,DEANNA MARCO,718-965-0390,P.S. 295,Elementary,NY,11215,POINT (-73.98889683510528 40.66106573679089),40.6610657368,-73.9888968351,5.0,6.0,6.0,4.32936507937,3.98543046358,4.09788359788,4.56821192053,4.0,4.63612217795,5.30194273408,3.9833051145,489.0
700 PARK AVENUE,14.0,14K297 ,K,2.0,BROOKLYN,718-302-2315,14,"PK,0K,01,02,03,04,05,SE",K297,1.0,JAMES BROWN,718-388-4581,P.S. 297 ABRAHAM STOCKTON,Elementary,NY,11206,POINT (-73.94757765443329 40.69758972942593),40.6975897294,-73.9475776544,14.0,15.0,15.0,4.23070469799,3.93718592965,4.02181208054,4.53227158424,3.80637049455,4.5788590604,3.61574589668,0.941989999715,256.0
85 WATKINS STREET,23.0,23K298 ,K,2.0,BROOKLYN,718-566-8770,23,"PK,0K,01,02,03,04,05,06,07,08,SE",K298,1.0,ANTOINETTE MARTIN,718-495-7793,P.S. 298 DR. BETTY SHABAZZ,K-8,NY,11212,POINT (-73.90790517801872 40.67101736904974),40.671017369,-73.907905178,6.0,7.0,7.0,4.52483443709,4.13824503311,4.2309602649,4.68046357616,4.15269709544,4.75993377483,8.13194010503,8.88302655385,216.0
88 WOODBINE STREET,32.0,32K299 ,K,2.0,BROOKLYN,718-574-1080,32,"PK,0K,01,02,03,04,05,SE",K299,1.0,WILMA KANOVA KIRK,718-574-0301,P.S. 299 THOMAS WARREN FIELD,Elementary,NY,11221,POINT (-73.91791804436888 40.69096213344323),40.6909621334,-73.9179180444,14.0,15.0,15.0,4.23070469799,3.93718592965,4.02181208054,4.53227158424,3.80637049455,4.5788590604,3.61574589668,0.941989999715,320.0
344 MONROE STREET,13.0,13K301 ,K,2.0,BROOKLYN,718-789-4823,13,"06,07,08,SE",K301,1.0,KIM MCPHERSON,718-789-4251,SATELLITE EAST MIDDLE SCHOOL,Junior High-Intermediate-Middle,NY,11216,POINT (-73.9454216483185 40.68582980699991),40.685829807,-73.9454216483,6.0,7.0,7.0,4.52483443709,4.13824503311,4.2309602649,4.68046357616,4.15269709544,4.75993377483,8.13194010503,8.88302655385,96.0
501 WEST AVENUE,21.0,21K303 ,K,2.0,BROOKLYN,718-996-3785,21,"06,07,08,SE",K303,1.0,Mr. Gary Ingrassia,718-996-0100,I.S. 303 HERBERT S. EISENBERG,Junior High-Intermediate-Middle,NY,11224,POINT (-73.97251675887095 40.58234296066259),40.5823429607,-73.9725167589,13.0,14.0,14.0,4.37473903967,4.01989528796,4.22779519331,4.61337513062,4.0355276907,4.72413793103,6.49883981342,5.82904349688,499.0
344 MONROE STREET,13.0,13K305 ,K,2.0,BROOKLYN,718-622-3474,13,"PK,0K,01,02,03,04,05,SE",K305,1.0,Dr. Julia Mortley,718-789-3962,P.S. 305 DR. PETER RAY,Elementary,NY,11216,POINT (-73.94513359559673 40.6858628904512),40.6858628905,-73.9451335956,6.0,7.0,7.0,4.52483443709,4.13824503311,4.2309602649,4.68046357616,4.15269709544,4.75993377483,8.13194010503,8.88302655385,182.0
970 VERMONT STREET,19.0,19K306 ,K,2.0,BROOKLYN,718-927-2243,19,"PK,0K,01,02,03,04,05,06,07,08,SE",K306,1.0,LAWRENCE BURROUGHS,718-649-3155,P.S. 306 ETHAN ALLEN,K-8,NY,11207,POINT (-73.88656183539605 40.65546388773432),40.6554638877,-73.8865618354,7.0,8.0,8.0,4.39173680184,4.2874617737,4.26758409786,4.65902140673,3.90199081164,4.74655436447,7.39040828363,8.07967657711,579.0
209 YORK STREET,13.0,13K307 ,K,2.0,BROOKLYN,718-855-4181,13,"PK,0K,01,02,03,04,05,SE",K307,1.0,ROBERTA DAVENPORT,718-834-4748,P.S. 307 DANIEL HALE WILLIAMS,Elementary,NY,11201,POINT (-73.98183170812649 40.70161154235191),40.7016115424,-73.9818317081,5.0,6.0,6.0,4.32936507937,3.98543046358,4.09788359788,4.56821192053,4.0,4.63612217795,5.30194273408,3.9833051145,380.0
616 QUINCY STREET,16.0,16K308 ,K,2.0,BROOKLYN,718-453-0663,16,"PK,0K,01,02,03,04,05,06,07,08,SE",K308,1.0,RENATA CLEMENT,718-574-2373,P.S. 308 CLARA CARDWELL,K-8,NY,11221,POINT (-73.93584950654338 40.68846597081621),40.6884659708,-73.9358495065,14.0,15.0,15.0,4.23070469799,3.93718592965,4.02181208054,4.53227158424,3.80637049455,4.5788590604,3.61574589668,0.941989999715,361.0
794 MONROE STREET,16.0,16K309 ,K,2.0,BROOKLYN,718-453-0643,16,"PK,0K,01,02,03,04,05,SE",K309,1.0,EMILY ZUCAL,718-574-2381,P.S. 309 GEORGE E. WIBECAN,Elementary,NY,11221,POINT (-73.92424282715758 40.68824390989305),40.6882439099,-73.9242428272,14.0,15.0,15.0,4.23070469799,3.93718592965,4.02181208054,4.53227158424,3.80637049455,4.5788590604,3.61574589668,0.941989999715,237.0
590 SHEFFIELD AVENUE,19.0,19K311 ,K,2.0,BROOKLYN,718-272-8372,19,"06,07,08,SE",K311,1.0,CLAUDY MAKELELE,718-272-8371,ESSENCE SCHOOL,Junior High-Intermediate-Middle,NY,11207,POINT (-73.8946434050511 40.66213957087409),40.6621395709,-73.8946434051,7.0,8.0,8.0,4.39173680184,4.2874617737,4.26758409786,4.65902140673,3.90199081164,4.74655436447,7.39040828363,8.07967657711,124.0
7103 AVENUE T,22.0,22K312 ,K,2.0,BROOKLYN,718-531-2796,22,"PK,0K,01,02,03,04,05,SE",K312,1.0,LINDA BEAL BENIGNO,718-763-4015,P.S. 312 BERGEN BEACH,Elementary,NY,11234,POINT (-73.90886556747469 40.62180233169514),40.6218023317,-73.9088655675,11.0,12.0,12.0,4.42141036534,4.34523809524,4.37021276596,4.65136054422,3.92602040816,4.74808510638,8.06519405428,8.018645945,862.0
209 YORK STREET,13.0,13K313 ,K,2.0,BROOKLYN,718-834-2979,13,"06,07,08,SE",K313,1.0,SUZANE JOSEPH,718-834-6774,SATELLITE WEST MIDDLE SCHOOL,Junior High-Intermediate-Middle,NY,11201,POINT (-73.98152517195852 40.70160216187356),40.7016021619,-73.981525172,5.0,6.0,6.0,4.32936507937,3.98543046358,4.09788359788,4.56821192053,4.0,4.63612217795,5.30194273408,3.9833051145,77.0
2310 GLENWOOD ROAD,22.0,22K315 ,K,2.0,BROOKLYN,718-421-9561,22,"PK,0K,01,02,03,04,05,SE",K315,1.0,Judith Ranft,718-421-9560,P.S. K315,Elementary,NY,11210,POINT (-73.95441122271849 40.63291609724818),40.6329160972,-73.9544112227,10.0,11.0,11.0,4.42335766423,4.04094631483,4.23406193078,4.60746812386,4.00818926297,4.64539653601,6.41496610377,6.53152013594,720.0
750 CLASSON AVENUE,17.0,17K316 ,K,2.0,BROOKLYN,718-230-5366,17,"PK,0K,01,02,03,04,05,SE",K316,1.0,ELIF GURE,718-638-4043,P.S. 316 ELIJAH STROUD,Elementary,NY,11238,POINT (-73.96050809779273 40.67465237244402),40.6746523724,-73.9605080978,6.0,7.0,7.0,4.52483443709,4.13824503311,4.2309602649,4.68046357616,4.15269709544,4.75993377483,8.13194010503,8.88302655385,429.0
101 WALTON STREET,14.0,14K318 ,K,2.0,BROOKLYN,718-384-7715,14,"06,07,08,SE",K318,1.0,FORTUNATO RUBINO,718-782-0589,I.S. 318 EUGENIO MARIA DE HOSTOS,Junior High-Intermediate-Middle,NY,11206,POINT (-73.94876084208997 40.70284820343722),40.7028482034,-73.9487608421,14.0,15.0,15.0,4.23070469799,3.93718592965,4.02181208054,4.53227158424,3.80637049455,4.5788590604,3.61574589668,0.941989999715,1491.0
360 KEAP STREET,14.0,14K319 ,K,2.0,BROOKLYN,718-302-2316,14,"PK,0K,01,SE",K319,1.0,ALEYDA ZAMORA MARTINEZ,718-388-1588,P.S. 319,Early Childhood,NY,11211,POINT (-73.95404000846231 40.70967342447609),40.7096734245,-73.9540400085,4.0,5.0,5.0,4.13798701299,4.19500324465,4.10386238234,4.4377027904,3.77005521273,4.52826510721,3.82311054892,1.35595264588,140.0
180 7 AVENUE,15.0,15K321 ,K,2.0,BROOKLYN,718-965-9605,15,"PK,0K,01,02,03,04,05,SE",K321,1.0,ELIZABETH PHILLIPS,718-499-2412,P.S. 321 WILLIAM PENN,Elementary,NY,11215,POINT (-73.97841902217252 40.67172952465202),40.6717295247,-73.9784190222,5.0,6.0,6.0,4.32936507937,3.98543046358,4.09788359788,4.56821192053,4.0,4.63612217795,5.30194273408,3.9833051145,1459.0
70 TOMPKINS AVENUE,14.0,14K322 ,K,2.0,BROOKLYN,718-302-5098,14,"09,10,11,12,SE",K322,1.0,Gary Beidleman,718-302-5092,FOUNDATIONS ACADEMY,High school,NY,11206,POINT (-73.94685235716975 40.69693091988704),40.6969309199,-73.9468523572,14.0,15.0,15.0,4.23070469799,3.93718592965,4.02181208054,4.53227158424,3.80637049455,4.5788590604,3.61574589668,0.941989999715,73.0
210 CHESTER STREET,23.0,23K323 ,K,2.0,BROOKLYN,718-346-4614,23,"PK,0K,01,02,03,04,05,06,07,08,SE",K323,1.0,LINDA HARRIS,718-495-7781,P.S./I.S. 323,K-8,NY,11212,POINT (-73.91118097182051 40.66656005986468),40.6665600599,-73.9111809718,6.0,7.0,7.0,4.52483443709,4.13824503311,4.2309602649,4.68046357616,4.15269709544,4.75993377483,8.13194010503,8.88302655385,443.0
1800 UTICA AVENUE,22.0,22K326 ,K,2.0,BROOKLYN,718-763-5567,22,"PK,0K,01,SE",K326,1.0,Colleen M. Ducey,718-241-4828,P.S. 326,Early Childhood,NY,11234,POINT (-73.92815604380768 40.62840376814277),40.6284037681,-73.9281560438,11.0,12.0,12.0,4.42141036534,4.34523809524,4.37021276596,4.65136054422,3.92602040816,4.74808510638,8.06519405428,8.018645945,212.0
111 BRISTOL STREET,23.0,23K327 ,K,2.0,BROOKLYN,718-495-7828,23,"PK,0K,01,02,03,04,05,06,07,08,SE",K327,1.0,STEPHEN APPEA,718-495-7801,P.S. 327 DR. ROSE B. ENGLISH,K-8,NY,11212,POINT (-73.91208280269555 40.66840803664487),40.6684080366,-73.9120828027,6.0,7.0,7.0,4.52483443709,4.13824503311,4.2309602649,4.68046357616,4.15269709544,4.75993377483,8.13194010503,8.88302655385,527.0
330 ALABAMA AVENUE,19.0,19K328 ,K,2.0,BROOKLYN,718-345-6566,19,"PK,0K,01,02,03,04,05,06,07,08,SE",K328,1.0,DOUGLAS AVILA,718-345-9393,P.S. 328 PHYLLIS WHEATLEY,K-8,NY,11207,POINT (-73.89794564767087 40.66765060616575),40.6676506062,-73.8979456477,7.0,8.0,8.0,4.39173680184,4.2874617737,4.26758409786,4.65902140673,3.90199081164,4.74655436447,7.39040828363,8.07967657711,309.0
2929 WEST  30 STREET,21.0,21K329 ,K,2.0,BROOKLYN,718-265-1525,21,"PK,0K,01,02,03,04,05,SE",K329,1.0,SALEMA MARBURY,718-996-3800,P.S. 329 SURFSIDE,Elementary,NY,11224,POINT (-73.99591275356629 40.57467110177162),40.5746711018,-73.9959127536,13.0,14.0,14.0,4.37473903967,4.01989528796,4.22779519331,4.61337513062,4.0355276907,4.72413793103,6.49883981342,5.82904349688,420.0
70 TOMPKINS AVENUE,14.0,14K330 ,K,2.0,BROOKLYN,718-388-0872,14,"06,07,08,SE",K330,1.0,KOURTNEY BOYD,718-599-0371,URBAN ASSEMBLY SCHOOL FOR THE URBAN ENVIRONMENT,Junior High-Intermediate-Middle,NY,11206,POINT (-73.94706525277172 40.69690004405853),40.6969000441,-73.9470652528,14.0,15.0,15.0,4.23070469799,3.93718592965,4.02181208054,4.53227158424,3.80637049455,4.5788590604,3.61574589668,0.941989999715,82.0
1224 PARK PLACE,17.0,17K334 ,K,2.0,BROOKLYN,718-774-0298,17,"06,07,08,SE",K334,1.0,Andrea Whitehurst,718-774-0105,MIDDLE SCHOOL FOR ACADEMIC AND SOCIAL EXCELLENCE,Junior High-Intermediate-Middle,NY,11213,POINT (-73.93753718725124 40.67248855322663),40.6724885532,-73.9375371873,6.0,7.0,7.0,4.52483443709,4.13824503311,4.2309602649,4.68046357616,4.15269709544,4.75993377483,8.13194010503,8.88302655385,82.0
130 ROCHESTER AVENUE,16.0,16K335 ,K,2.0,BROOKLYN,718-953-4697,16,"PK,0K,01,02,03,04,05,SE",K335,1.0,DR. LAVERNE NIMMONS,718-493-7736,P.S. 335 GRANVILLE T. WOODS,Elementary,NY,11213,POINT (-73.92819464577046 40.67431737418977),40.6743173742,-73.9281946458,6.0,7.0,7.0,4.52483443709,4.13824503311,4.2309602649,4.68046357616,4.15269709544,4.75993377483,8.13194010503,8.88302655385,301.0
227 STERLING PLACE,17.0,17K340 ,K,2.0,BROOKLYN,718-230-5479,13,"06,07,08,SE",K340,1.0,Mrs. Jean Williams,718-857-5516,I.S. 340,Junior High-Intermediate-Middle,NY,11238,POINT (-73.97030872539712 40.67636183709471),40.6763618371,-73.9703087254,6.0,7.0,7.0,4.52483443709,4.13824503311,4.2309602649,4.68046357616,4.15269709544,4.75993377483,8.13194010503,8.88302655385,203.0
521 WEST AVENUE,21.0,21K344 ,K,2.0,BROOKLYN,718-372-2514,21,"09,10,11,12,SE",K344,1.0,EDWARD WILENSKY,718-265-0329,RACHEL CARSON HIGH SCHOOL FOR COASTAL STUDIES,High school,NY,11224,POINT (-73.97193606974966 40.58229670089184),40.5822967009,-73.9719360697,13.0,14.0,14.0,4.37473903967,4.01989528796,4.22779519331,4.61337513062,4.0355276907,4.72413793103,6.49883981342,5.82904349688,562.0
111 BERRIMAN STREET,19.0,19K345 ,K,2.0,BROOKLYN,718-827-5884,19,"PK,0K,01,02,03,04,05,SE",K345,1.0,WANDA HOLT,718-647-8387,P.S. 345 PATROLMAN ROBERT BOLDEN,Elementary,NY,11208,POINT (-73.8800190490723 40.67626002253031),40.6762600225,-73.8800190491,7.0,8.0,8.0,4.39173680184,4.2874617737,4.26758409786,4.65902140673,3.90199081164,4.74655436447,7.39040828363,8.07967657711,644.0
1400 PENNSYLVANIA AVENUE,19.0,19K346 ,K,2.0,BROOKLYN,718-642-8498,19,"PK,0K,01,02,03,04,05,SE",K346,1.0,KEVIN CAIFA,718-642-3000,P.S. 346 ABE STARK,Elementary,NY,11239,POINT (-73.88174634188786 40.6469796124037),40.6469796124,-73.8817463419,11.0,12.0,12.0,4.42141036534,4.34523809524,4.37021276596,4.65136054422,3.92602040816,4.74808510638,8.06519405428,8.018645945,653.0
35 STARR STREET,32.0,32K347 ,K,2.0,BROOKLYN,718-821-1332,32,"06,07,08,SE",K347,1.0,JOHN BARBELLA,718-821-4248,I.S. 347 SCHOOL OF HUMANITIES,Junior High-Intermediate-Middle,NY,11221,POINT (-73.92767589030545 40.70081688582379),40.7008168858,-73.9276758903,14.0,15.0,15.0,4.23070469799,3.93718592965,4.02181208054,4.53227158424,3.80637049455,4.5788590604,3.61574589668,0.941989999715,303.0
2630 BENSON AVENUE,21.0,21K348 ,K,2.0,BROOKLYN,718-333-7675,21,"09,10,11,12,SE",K348,1.0,ROBIN PITTS,718-333-7650,HIGH SCHOOL OF SPORTS MANAGEMENT,High school,NY,11214,POINT (-73.9859318703333 40.59400306519108),40.5940030652,-73.9859318703,12.0,13.0,13.0,4.36958710977,4.27391742195,4.29305135952,4.63608870968,4.02527805865,4.74672048436,7.71822059233,5.40644744438,262.0
35 STARR STREET,32.0,32K349 ,K,2.0,BROOKLYN,718-418-6146,32,"06,07,08,SE",K349,1.0,ROGELIO PARRIS,718-418-6389,"I.S. 349 MATH, SCIENCE & TECH.",Junior High-Intermediate-Middle,NY,11221,POINT (-73.92731339828219 40.70120823427703),40.7012082343,-73.9273133983,14.0,15.0,15.0,4.23070469799,3.93718592965,4.02181208054,4.53227158424,3.80637049455,4.5788590604,3.61574589668,0.941989999715,304.0
49 FLATBUSH AVENUE EXTENSION,13.0,13K350 ,K,2.0,BROOKLYN,718-858-0492,13,"09,10,11,12,SE",K350,1.0,PAUL THOMPSON,718-858-0249,"URBAN ASSEMBLY SCHOOL OF MUSIC AND ART, THE",High school,NY,11201,POINT (-73.98475508530488 40.6974414172341),40.6974414172,-73.9847550853,5.0,6.0,6.0,4.32936507937,3.98543046358,4.09788359788,4.56821192053,4.0,4.63612217795,5.30194273408,3.9833051145,333.0
46 MCKEEVER PLACE,17.0,17K352 ,K,2.0,BROOKLYN,718-284-7973,17,"06,07,08,SE",K352,1.0,Margie Baker,718-941-5097,EBBETS FIELD MIDDLE SCHOOL,Junior High-Intermediate-Middle,NY,11225,POINT (-73.95948257848991 40.66509063912668),40.6650906391,-73.9594825785,10.0,11.0,11.0,4.42335766423,4.04094631483,4.23406193078,4.60746812386,4.00818926297,4.64539653601,6.41496610377,6.53152013594,188.0
750 CLASSON AVENUE,17.0,17K353 ,K,2.0,BROOKLYN,718-638-3515,17,"06,07,08,SE",K353,1.0,CLAUDETTE ESSOR,718-638-3067,ELIJAH STROUD MIDDLE SCHOOL,Junior High-Intermediate-Middle,NY,11238,POINT (-73.96060019048608 40.67435497969369),40.6743549797,-73.9606001905,6.0,7.0,7.0,4.52483443709,4.13824503311,4.2309602649,4.68046357616,4.15269709544,4.75993377483,8.13194010503,8.88302655385,196.0
1224 PARK PLACE,17.0,17K354 ,K,2.0,BROOKLYN,718-774-0521,17,"06,07,08,SE",K354,1.0,MONIQUE CAMPBELL,718-774-0362,THE SCHOOL OF INTEGRATED LEARNING,Junior High-Intermediate-Middle,NY,11213,POINT (-73.93725926378633 40.67247474926428),40.6724747493,-73.9372592638,6.0,7.0,7.0,4.52483443709,4.13824503311,4.2309602649,4.68046357616,4.15269709544,4.75993377483,8.13194010503,8.88302655385,202.0
157 WILSON STREET,84.0,84K355,K,2.0,BROOKLYN,718-302-4641,14,"05,06,07,08,09,10",K355,2.0,J.T. Leaird,718-302-4018,WILLIAMSBURG COLLEGIATE CHARTER SCHOOL,Junior High-Intermediate-Middle,NY,11211,POINT (-73.96165731082361 40.70612765647757),40.7061276565,-73.9616573108,4.0,5.0,5.0,4.13798701299,4.19500324465,4.10386238234,4.4377027904,3.77005521273,4.52826510721,3.82311054892,1.35595264588,538.0
790 EAST NEW YORK AVENUE,84.0,84K356,K,2.0,BROOKLYN,718-774-0830,17,"0K,01,02,03,04,05,06,07,08,09,10",K356,2.0,Camilla Lopez/Wells Blanch*,718-774-0762,ACHIEVEMENT FIRST- CROWN HEIGHTS CHARTER SCHOOL,K-12 all grades,NY,11203,POINT (-73.9367186157144 40.662064786069),40.6620647861,-73.9367186157,10.0,11.0,11.0,4.42335766423,4.04094631483,4.23406193078,4.60746812386,4.00818926297,4.64539653601,6.41496610377,6.53152013594,1016.0
1224 PARK PLACE,84.0,84K357,K,2.0,BROOKLYN,718-774-3673,17,"05,06,07,08,09,10,SE",K357,2.0,Ky Adderley/Natalie Webb,718-943-3710,KIPP AMP (ALWAYS MENTALLY PREPARED) CHARTER SCHOOL,K-12 all grades,NY,11213,POINT (-73.93727143418539 40.67224493484134),40.6722449348,-73.9372714342,6.0,7.0,7.0,4.52483443709,4.13824503311,4.2309602649,4.68046357616,4.15269709544,4.75993377483,8.13194010503,8.88302655385,787.0
557 PENNSYLVANIA AVENUE,84.0,84K358,K,2.0,BROOKLYN,718-342-5194,19,"0K,01,02,03,04,05,06,07,08",K358,2.0,Hilary Cymrot/David Hardy,718-485-4924,ACHIEVEMENT FIRST EAST NEW YORK SCHOOL,K-12 all grades,NY,11207,POINT (-73.89345038890134 40.66406952113482),40.6640695211,-73.8934503889,7.0,8.0,8.0,4.39173680184,4.2874617737,4.26758409786,4.65902140673,3.90199081164,4.74655436447,7.39040828363,8.07967657711,846.0
300 WYONA STREET,84.0,84K359,K,2.0,BROOKLYN,718-922-0543,19,"0K,01,02,03,04,05,06,07,08,09,10,SE",K359,2.0,Michelle Bodden-White,718-922-0438,THE UFT CHARTER SCHOOL,K-12 all grades,NY,11207,POINT (-73.8931865942607 40.67122321210031),40.6712232121,-73.8931865943,7.0,8.0,8.0,4.39173680184,4.2874617737,4.26758409786,4.65902140673,3.90199081164,4.74655436447,7.39040828363,8.07967657711,362.0
3109 NEWKIRK AVENUE,22.0,22K361 ,K,2.0,BROOKLYN,718-856-0300,22,"PK,0K,01,02,SE",K361,1.0,Dianne S. Martin,718-856-0600,P.S. 361,Early Childhood,NY,11226,POINT (-73.94699767779872 40.64029312041404),40.6402931204,-73.9469976778,10.0,11.0,11.0,4.42335766423,4.04094631483,4.23406193078,4.60746812386,4.00818926297,4.64539653601,6.41496610377,6.53152013594,538.0
646 FIFTH AVENUE,84.0,84K362,K,2.0,BROOKLYN,718-499-0959,15,"0K,01,02,03,04,05,06,07,08",K362,2.0,Christina Tettonis,718-499-0957,HELLENIC CLASSICAL CHARTER SCHOOL,K-8,NY,11215,POINT (-73.99208176593481 40.66295490266475),40.6629549027,-73.9920817659,8.0,9.0,9.0,4.31640625,4.345703125,4.2255859375,4.611328125,3.85239491691,4.677734375,6.66201453403,6.68647458268,494.0
1426 FREEPORT LOOP,19.0,19K364 ,K,2.0,BROOKLYN,718-642-8516,19,"06,07,08,SE",K364,1.0,DALE KELLY,718-642-3007,I.S. 364 GATEWAY,Junior High-Intermediate-Middle,NY,11239,POINT (-73.88198510096545 40.64567452698147),40.645674527,-73.881985101,11.0,12.0,12.0,4.42141036534,4.34523809524,4.37021276596,4.65136054422,3.92602040816,4.74808510638,8.06519405428,8.018645945,313.0
70 TOMPKINS AVENUE,75.0,75K368 ,K,2.0,BROOKLYN,718-302-4481,14,"0K,01,02,03,04,05,06,07,08,09,10,11,12,SE",K368,1.0,JOYCELYN NEDD,718-388-9494,P.S. 368,K-12 all grades,NY,11206,POINT (-73.94729692712838 40.696873941659),40.6968739417,-73.9472969271,14.0,15.0,15.0,4.23070469799,3.93718592965,4.02181208054,4.53227158424,3.80637049455,4.5788590604,3.61574589668,0.941989999715,219.0
383 STATE STREET,75.0,75K369 ,K,2.0,BROOKLYN,718-624-6746,15,"0K,01,02,03,04,05,06,07,08,09,10,11,12,SE",K369,1.0,RUDY GIULIANI,718-852-1701,P.S. K369  - COY L. COX SCHOOL,K-12 all grades,NY,11217,POINT (-73.9833199476555 40.68731756202342),40.687317562,-73.9833199477,5.0,6.0,6.0,4.32936507937,3.98543046358,4.09788359788,4.56821192053,4.0,4.63612217795,5.30194273408,3.9833051145,631.0
3000 WEST 1 STREET,75.0,75K370 ,K,2.0,BROOKLYN,718-449-4082,21,"0K,01,02,03,04,05,07,08,09,10,11,12,SE",K370,1.0,SUSAN GOLDBERG,718-372-3777,P.S. 370,K-12 all grades,NY,11224,POINT (-73.96974086654986 40.57768421801445),40.577684218,-73.9697408665,13.0,14.0,14.0,4.37473903967,4.01989528796,4.22779519331,4.61337513062,4.0355276907,4.72413793103,6.49883981342,5.82904349688,230.0
355 37 STREET,75.0,75K371 ,K,2.0,BROOKLYN,718-832-2213,15,"09,10,11,12,SE",K371,1.0,Joan Antonelli,718-788-7608,P.S. 371 - LILLIAN L. RASHKIS,High school,NY,11232,POINT (-74.00530924043539 40.65416820980713),40.6541682098,-74.0053092404,8.0,9.0,9.0,4.31640625,4.345703125,4.2255859375,4.611328125,3.85239491691,4.677734375,6.66201453403,6.68647458268,261.0
512 CARROLL STREET,75.0,75K372 ,K,2.0,BROOKLYN,718-522-1879,15,"0K,01,02,03,04,05,06,SE",K372,1.0,ARTHUR MATTIA,718-624-5271,P.S. 372 -THE CHILDREN'S SCHOOL,Elementary,NY,11215,POINT (-73.98523939088021 40.67646836024136),40.6764683602,-73.9852393909,5.0,6.0,6.0,4.32936507937,3.98543046358,4.09788359788,4.56821192053,4.0,4.63612217795,5.30194273408,3.9833051145,208.0
185 ELLERY STREET,75.0,75K373 ,K,2.0,BROOKLYN,718-782-7098,14,"09,10,11,12,SE",K373,1.0,VALERIE MILLER,718-782-6800,P.S. 373 - BROOKLYN TRANSITION CENTER,High school,NY,11206,POINT (-73.9452034535562 40.69925919125249),40.6992591913,-73.9452034536,14.0,15.0,15.0,4.23070469799,3.93718592965,4.02181208054,4.53227158424,3.80637049455,4.5788590604,3.61574589668,0.941989999715,383.0
46 MCKEEVER PLACE,17.0,17K375 ,K,2.0,BROOKLYN,718-284-6433,17,"PK,0K,01,02,03,04,05,SE",K375,1.0,Ms. Marion Wilson,718-693-6655,P.S. 375 JACKIE-ROBINSON SCHOOL,Elementary,NY,11225,POINT (-73.95963016379226 40.66480258408372),40.6648025841,-73.9596301638,10.0,11.0,11.0,4.42335766423,4.04094631483,4.23406193078,4.60746812386,4.00818926297,4.64539653601,6.41496610377,6.53152013594,454.0
194 HARMAN STREET,32.0,32K376 ,K,2.0,BROOKLYN,718-573-0769,32,"0K,01,02,03,04,05,SE",K376,1.0,Maria Vera,718-573-0781,P.S. 376,Elementary,NY,11237,POINT (-73.92038781635802 40.69802000610443),40.6980200061,-73.9203878164,14.0,15.0,15.0,4.23070469799,3.93718592965,4.02181208054,4.53227158424,3.80637049455,4.5788590604,3.61574589668,0.941989999715,564.0
200 WOODBINE STREET,32.0,32K377 ,K,2.0,BROOKLYN,718-574-1082,32,"PK,0K,01,02,03,04,05,06,07,08,SE",K377,1.0,DOMINIC ZAGAMI,718-574-0325,P.S. 377 ALEJANDRINA B. DE GAUTIER,K-8,NY,11221,POINT (-73.9149053832279 40.69385053879093),40.6938505388,-73.9149053832,14.0,15.0,15.0,4.23070469799,3.93718592965,4.02181208054,4.53227158424,3.80637049455,4.5788590604,3.61574589668,0.941989999715,447.0
370 MARCY AVENUE,14.0,14K380 ,K,2.0,BROOKLYN,718-599-3231,14,"PK,0K,01,02,03,04,05,SE",K380,1.0,Diane Vitolo,718-388-0607,P.S. 380 JOHN WAYNE ELEMENTARY,Elementary,NY,11206,POINT (-73.95344778636385 40.70202772344136),40.7020277234,-73.9534477864,14.0,15.0,15.0,4.23070469799,3.93718592965,4.02181208054,4.53227158424,3.80637049455,4.5788590604,3.61574589668,0.941989999715,633.0
1599 EAST  22 STREET,22.0,22K381 ,K,2.0,BROOKLYN,718-252-0035,22,"06,07,08,SE",K381,1.0,MARY HARRINGTON,718-252-0058,I. S. 381,Junior High-Intermediate-Middle,NY,11210,POINT (-73.95161804033349 40.61273578052005),40.6127357805,-73.9516180403,10.0,11.0,11.0,4.42335766423,4.04094631483,4.23406193078,4.60746812386,4.00818926297,4.64539653601,6.41496610377,6.53152013594,310.0
911 FLATBUSH AVENUE,17.0,17K382 ,K,2.0,BROOKLYN,718-564-2567,17,"06,07,08,09,10,11,12,SE",K382,1.0,Doris Unger,718-564-2566,ACADEMY FOR COLLEGE PREPARATION AND CAREER EXPLORATION,Secondary School,NY,11226,POINT (-73.95812656351868 40.64927772950993),40.6492777295,-73.9581265635,10.0,11.0,11.0,4.42335766423,4.04094631483,4.23406193078,4.60746812386,4.00818926297,4.64539653601,6.41496610377,6.53152013594,451.0
1300 GREENE AVENUE,32.0,32K383 ,K,2.0,BROOKLYN,718-574-1366,32,"05,06,07,08,SE",K383,1.0,BARBARA SANDERS,718-574-0390,J.H.S. 383 PHILLIPPA SCHUYLER,Junior High-Intermediate-Middle,NY,11237,POINT (-73.91946078694622 40.69763231541105),40.6976323154,-73.9194607869,14.0,15.0,15.0,4.23070469799,3.93718592965,4.02181208054,4.53227158424,3.80637049455,4.5788590604,3.61574589668,0.941989999715,951.0
242 COOPER STREET,32.0,32K384 ,K,2.0,BROOKLYN,718-574-1364,32,"PK,0K,01,02,03,04,05,06,07,08,SE",K384,1.0,BRUNHILDA PEREZ,718-574-0382,P.S. /I.S. 384 FRANCES E. CARTER,K-8,NY,11207,POINT (-73.90472579508047 40.69010096871961),40.6901009687,-73.9047257951,7.0,8.0,8.0,4.39173680184,4.2874617737,4.26758409786,4.65902140673,3.90199081164,4.74655436447,7.39040828363,8.07967657711,641.0
125 STUYVESANT AVENUE,16.0,16K385 ,K,2.0,BROOKLYN,718-602-3274,16,"06,07,08,SE",K385,1.0,GLYN MARRYSHOW,718-602-3271,"SCHOOL OF BUSINESS, FINANCE AND ENTREPRENEURSHIP",Junior High-Intermediate-Middle,NY,11221,POINT (-73.93348005648504 40.6914030137431),40.6914030137,-73.9334800565,14.0,15.0,15.0,4.23070469799,3.93718592965,4.02181208054,4.53227158424,3.80637049455,4.5788590604,3.61574589668,0.941989999715,60.0
104 SUTTER AVENUE,23.0,23K392 ,K,2.0,BROOKLYN,718-346-2804,23,"05,06,07,08,SE",K392,1.0,Shirley Wheeler,718-498-2491,I.S. 392,Junior High-Intermediate-Middle,NY,11212,POINT (-73.91811676591207 40.66546362877892),40.6654636288,-73.9181167659,6.0,7.0,7.0,4.52483443709,4.13824503311,4.2309602649,4.68046357616,4.15269709544,4.75993377483,8.13194010503,8.88302655385,258.0
1010 LAFAYETTE AVENUE,16.0,16K393 ,K,2.0,BROOKLYN,718-574-2821,16,"06,07,08,09,10,11,12,SE",K393,1.0,Elvin Crespo,718-574-2820,FREDERICK DOUGLASS ACADEMY IV SECONDARY SCHOOL,Secondary School,NY,11221,POINT (-73.9316897329867 40.6918393855097),40.6918393855,-73.931689733,14.0,15.0,15.0,4.23070469799,3.93718592965,4.02181208054,4.53227158424,3.80637049455,4.5788590604,3.61574589668,0.941989999715,77.0
188 ROCHESTER AVENUE,17.0,17K394 ,K,2.0,BROOKLYN,718-756-3177,17,"PK,0K,01,02,03,04,05,06,07,08,SE",K394,1.0,Ms. Claudette Murray,718-756-3164,M.S. K394,K-8,NY,11213,POINT (-73.92830617549762 40.67280467435881),40.6728046744,-73.9283061755,6.0,7.0,7.0,4.52483443709,4.13824503311,4.2309602649,4.68046357616,4.15269709544,4.75993377483,8.13194010503,8.88302655385,571.0
110 CHESTER STREET,75.0,75K396 ,K,2.0,BROOKLYN,718-345-3021,23,"0K,01,02,03,04,05,06,07,08,12,SE",K396,1.0,Nira Schwartz-Nyitray,718-385-6200,P.S. K396,K-12 all grades,NY,11212,POINT (-73.91137734331427 40.66762420732306),40.6676242073,-73.9113773433,6.0,7.0,7.0,4.52483443709,4.13824503311,4.2309602649,4.68046357616,4.15269709544,4.75993377483,8.13194010503,8.88302655385,306.0
490 FENIMORE STREET,17.0,17K397 ,K,2.0,BROOKLYN,718-953-4856,17,"0K,01,02,03,04,05,SE",K397,1.0,NANCY COLON,718-774-5200,P.S. 397 FOSTER-LAURIE,Elementary,NY,11203,POINT (-73.94641625302826 40.65876159105129),40.6587615911,-73.946416253,10.0,11.0,11.0,4.42335766423,4.04094631483,4.23406193078,4.60746812386,4.00818926297,4.64539653601,6.41496610377,6.53152013594,251.0
60 EAST  94 STREET,17.0,17K398 ,K,2.0,BROOKLYN,718-467-4018,17,"PK,0K,01,02,03,04,05,SE",K398,1.0,Diane Danay-Caban,718-774-4466,P.S. 398 WALTER WEAVER,Elementary,NY,11212,POINT (-73.92797578335428 40.66404169502589),40.664041695,-73.9279757834,6.0,7.0,7.0,4.52483443709,4.13824503311,4.2309602649,4.68046357616,4.15269709544,4.75993377483,8.13194010503,8.88302655385,381.0
2707 ALBERMARLE ROAD,17.0,17K399 ,K,2.0,BROOKLYN,718-940-0702,17,"0K,01,02,03,04,05,SE",K399,1.0,Marion J. Brown,718-693-3023,P.S. 399 STANLEY EUGENE CLARK,Elementary,NY,11226,POINT (-73.95190400365802 40.64821927666208),40.6482192767,-73.9519040037,10.0,11.0,11.0,4.42335766423,4.04094631483,4.23406193078,4.60746812386,4.00818926297,4.64539653601,6.41496610377,6.53152013594,481.0
400 IRVING AVENUE,32.0,32K403 ,K,2.0,BROOKLYN,718-628-6965,32,"09,10,11,12,SE",K403,1.0,Nilda Gomez-Katz,718-381-7100,ACADEMY FOR ENVIRONMENTAL LEADERSHIP,High school,NY,11237,POINT (-73.9114814394989 40.69701694996476),40.69701695,-73.9114814395,14.0,15.0,15.0,4.23070469799,3.93718592965,4.02181208054,4.53227158424,3.80637049455,4.5788590604,3.61574589668,0.941989999715,309.0
2839 BEDFORD AVENUE,22.0,22K405 ,K,2.0,BROOKLYN,718-724-8515,22,"09,10,11,12,SE",K405,1.0,DAVID COHEN,718-724-8500,MIDWOOD HIGH SCHOOL,High school,NY,11210,POINT (-73.95232338357621 40.63282598910088),40.6328259891,-73.9523233836,10.0,11.0,11.0,4.42335766423,4.04094631483,4.23406193078,4.60746812386,4.00818926297,4.64539653601,6.41496610377,6.53152013594,3986.0
911 FLATBUSH AVENUE,17.0,17K408 ,K,2.0,BROOKLYN,718-564-2581,17,"09,10,11,12,SE",K408,1.0,ADAM BREIER,718-564-2580,ACADEMY OF  HOSPITALITY AND TOURISM,High school,NY,11226,POINT (-73.9581708065656 40.64945087121475),40.6494508712,-73.9581708066,10.0,11.0,11.0,4.42335766423,4.04094631483,4.23406193078,4.60746812386,4.00818926297,4.64539653601,6.41496610377,6.53152013594,224.0
2057 LINDEN BOULEVARD,19.0,19K409 ,K,2.0,BROOKLYN,718-927-0411,19,"06,07,08,09,10,11,12,SE",K409,1.0,SHEILA RICHARDS,718-927-0012,EAST NEW YORK FAMILY ACADEMY,Secondary School,NY,11207,POINT (-73.8867376552783 40.66126854093046),40.6612685409,-73.8867376553,7.0,8.0,8.0,4.39173680184,4.2874617737,4.26758409786,4.65902140673,3.90199081164,4.74655436447,7.39040828363,8.07967657711,491.0
2800 OCEAN PARKWAY,21.0,21K410 ,K,2.0,BROOKLYN,718-946-5035,21,"09,10,11,12,SE",K410,1.0,Ari Hoogenboom,718-333-7400,ABRAHAM LINCOLN HIGH SCHOOL,High school,NY,11235,POINT (-73.96813063401359 40.58190358813236),40.5819035881,-73.968130634,13.0,14.0,14.0,4.37473903967,4.01989528796,4.22779519331,4.61337513062,4.0355276907,4.72413793103,6.49883981342,5.82904349688,2108.0
300 WILLOUGHBY AVENUE,13.0,13K412 ,K,2.0,BROOKLYN,718-230-3050,13,"09,10,11,12,SE",K412,1.0,James O'Brien,718-230-5748,"BROOKLYN COMMUNITY HIGH SCHOOL OF COMMUNICATION, A",High school,NY,11205,POINT (-73.95841464308496 40.69158957813696),40.6915895781,-73.9584146431,5.0,6.0,6.0,4.32936507937,3.98543046358,4.09788359788,4.56821192053,4.0,4.63612217795,5.30194273408,3.9833051145,379.0
49 FLATBUSH AVENUE EXTENSION,13.0,13K419 ,K,2.0,BROOKLYN,718-243-9399,13,"09,10,11,12,SE",K419,1.0,JUDY HENRY,718-243-9413,"SCIENCE SKILLS CENTER HIGH SCHOOL FOR SCIENCE, TEC",High school,NY,11201,POINT (-73.98451075438402 40.6974346223714),40.6974346224,-73.9845107544,5.0,6.0,6.0,4.32936507937,3.98543046358,4.09788359788,4.56821192053,4.0,4.63612217795,5.30194273408,3.9833051145,549.0
3787 BEDFORD AVENUE,22.0,22K425 ,K,2.0,BROOKLYN,718-758-7341,22,"09,10,11,12,SE",K425,1.0,Joseph A. Gogliormella,718-758-7200,JAMES MADISON HIGH SCHOOL,High school,NY,11229,POINT (-73.94807977862938 40.609915603749),40.6099156037,-73.9480797786,13.0,14.0,14.0,4.37473903967,4.01989528796,4.22779519331,4.61337513062,4.0355276907,4.72413793103,6.49883981342,5.82904349688,3250.0
284 BALTIC STREET,15.0,15K429 ,K,2.0,BROOKLYN,718-694-9745,15,"06,07,08,09,10,11,12,SE",K429,1.0,Joseph O'Brien,718-694-9741,BROOKLYN SCHOOL FOR GLOBAL STUDIES,Secondary School,NY,11201,POINT (-73.99360760157555 40.68528757145093),40.6852875715,-73.9936076016,5.0,6.0,6.0,4.32936507937,3.98543046358,4.09788359788,4.56821192053,4.0,4.63612217795,5.30194273408,3.9833051145,223.0
29 FT GREENE PLACE,13.0,13K430 ,K,2.0,BROOKLYN,718-260-9245,13,"09,10,11,12",K430,1.0,RANDY ASHER,718-804-6400,BROOKLYN TECHNICAL HIGH SCHOOL,High school,NY,11217,POINT (-73.97659221167859 40.68884537094301),40.6888453709,-73.9765922117,5.0,6.0,6.0,4.32936507937,3.98543046358,4.09788359788,4.56821192053,4.0,4.63612217795,5.30194273408,3.9833051145,5534.0
49 FLATBUSH AVENUE EXTENSION,13.0,13K439 ,K,2.0,BROOKLYN,718-643-9516,13,"09,10,11,12",K439,1.0,PAMELA TARANTO,718-643-9315,BROOKLYN INTERNATIONAL HIGH SCHOOL,High school,NY,11201,POINT (-73.9847595594029 40.69730279190802),40.6973027919,-73.9847595594,5.0,6.0,6.0,4.32936507937,3.98543046358,4.09788359788,4.56821192053,4.0,4.63612217795,5.30194273408,3.9833051145,362.0
317 HOYT STREET,15.0,15K442 ,K,2.0,BROOKLYN,718-330-9251,15,"06,07,08,SE",K442,1.0,DEANNA SINITO,718-330-9227,NEW HORIZONS SCHOOL,Junior High-Intermediate-Middle,NY,11231,POINT (-73.99180749828729 40.68031920958534),40.6803192096,-73.9918074983,5.0,6.0,6.0,4.32936507937,3.98543046358,4.09788359788,4.56821192053,4.0,4.63612217795,5.30194273408,3.9833051145,217.0
330 18 STREET,15.0,15K443 ,K,2.0,BROOKLYN,718-965-0603,15,"06,07,08,SE",K443,1.0,FRANK GIORDANO,718-965-0390,NEW VOICES SCHOOL OF ACADEMIC & CREATIVE ARTS,Junior High-Intermediate-Middle,NY,11215,POINT (-73.98910714644919 40.66088960925553),40.6608896093,-73.9891071464,5.0,6.0,6.0,4.32936507937,3.98543046358,4.09788359788,4.56821192053,4.0,4.63612217795,5.30194273408,3.9833051145,541.0
1601 80 STREET,20.0,20K445 ,K,2.0,BROOKLYN,718-259-5526,20,"09,10,11,12,SE",K445,1.0,MAUREEN GOLDFARB,718-232-2500,NEW UTRECHT HIGH SCHOOL,High school,NY,11214,POINT (-74.00303777614874 40.61330524646885),40.6133052465,-74.0030377761,12.0,13.0,13.0,4.36958710977,4.27391742195,4.29305135952,4.63608870968,4.02527805865,4.74672048436,7.71822059233,5.40644744438,3553.0
345 DEAN STREET,15.0,15K447 ,K,2.0,BROOKLYN,718-330-0944,15,"06,07,08,SE",K447,1.0,Lisa Gioe,718-330-9328,THE MATH & SCIENCE EXPLORATORY SCHOOL,Junior High-Intermediate-Middle,NY,11217,POINT (-73.98040173341796 40.68383059630065),40.6838305963,-73.9804017334,5.0,6.0,6.0,4.32936507937,3.98543046358,4.09788359788,4.56821192053,4.0,4.63612217795,5.30194273408,3.9833051145,525.0
610 HENRY STREET,15.0,15K448 ,K,2.0,BROOKLYN,718-923-4730,15,"06,07,08,09,10,11,12,SE",K448,1.0,ALYCE BARR,718-923-4750,BROOKLYN SECONDARY SCHOOL FOR COLLABORATIVE  STUDI,Secondary School,NY,11231,POINT (-74.00178931119827 40.67965394939383),40.6796539494,-74.0017893112,5.0,6.0,6.0,4.32936507937,3.98543046358,4.09788359788,4.56821192053,4.0,4.63612217795,5.30194273408,3.9833051145,679.0
325 BUSHWICK AVENUE,14.0,14K449 ,K,2.0,BROOKLYN,718-381-3012,14,"09,10,11,12",K449,1.0,JASON GRIFFITHS,718-366-0154,"BROOKLYN LATIN SCHOOL, THE",High school,NY,11206,POINT (-73.93876899407306 40.70491308636734),40.7049130864,-73.9387689941,14.0,15.0,15.0,4.23070469799,3.93718592965,4.02181208054,4.53227158424,3.80637049455,4.5788590604,3.61574589668,0.941989999715,664.0
1400 PENNSYLVANIA AVENUE,19.0,19K452 ,K,2.0,BROOKLYN,718-642-4537,19,"06,07,08,SE",K452,1.0,YOLANDA MARTIN,718-642-4305,FREDERICK DOUGLASS ACADEMY VIII MIDDLE SCHOOL,Junior High-Intermediate-Middle,NY,11239,POINT (-73.88152536939917 40.64679477099634),40.646794771,-73.8815253694,11.0,12.0,12.0,4.42141036534,4.34523809524,4.37021276596,4.65136054422,3.92602040816,4.74808510638,8.06519405428,8.018645945,308.0
223 GRAHAM AVENUE,14.0,14K454 ,K,2.0,BROOKLYN,718-387-7945,14,"09,10,11,12,SE",K454,1.0,Karali Pitzele,718-599-1207,GREEN SCHOOL: AN ACADEMY FOR ENVIRONMENTAL CAREERS,High school,NY,11206,POINT (-73.94408538447844 40.70979308958253),40.7097930896,-73.9440853845,14.0,15.0,15.0,4.23070469799,3.93718592965,4.02181208054,4.53227158424,3.80637049455,4.5788590604,3.61574589668,0.941989999715,261.0
1700 FULTON STREET,16.0,16K455 ,K,2.0,BROOKLYN,718-221-0645,16,"09,10,11,12,SE",K455,1.0,BERNARD GASSAWAY,718-467-1700,BOYS AND GIRLS HIGH SCHOOL,High school,NY,11213,POINT (-73.93156558655183 40.67889928765376),40.6788992877,-73.9315655866,6.0,7.0,7.0,4.52483443709,4.13824503311,4.2309602649,4.68046357616,4.15269709544,4.75993377483,8.13194010503,8.88302655385,383.0
237 7 AVENUE,15.0,15K462 ,K,2.0,BROOKLYN,718-499-3947,15,"06,07,08,09,10,11,12,SE",K462,1.0,Oneatha Swinton,718-832-4250,SECONDARY SCHOOL FOR LAW,Secondary School,NY,11215,POINT (-73.97892875909896 40.66961786144547),40.6696178614,-73.9789287591,5.0,6.0,6.0,4.32936507937,3.98543046358,4.09788359788,4.56821192053,4.0,4.63612217795,5.30194273408,3.9833051145,357.0
237 7 AVENUE,15.0,15K463 ,K,2.0,BROOKLYN,718-832-0273,15,"06,07,08,09,10,11,12,SE",K463,1.0,ABBIE REIF,718-832-4201,SECONDARY SCHOOL FOR JOURNALISM,Secondary School,NY,11215,POINT (-73.97911149588131 40.6693619902012),40.6693619902,-73.9791114959,5.0,6.0,6.0,4.32936507937,3.98543046358,4.09788359788,4.56821192053,4.0,4.63612217795,5.30194273408,3.9833051145,222.0
237 7 AVENUE,15.0,15K464 ,K,2.0,BROOKLYN,718-788-8127,15,"06,07,08,09,10,11,12,SE",K464,1.0,JILL BLOOMBERG,718-832-4300,Park Slope Collegiate,Secondary School,NY,11215,POINT (-73.97857811552949 40.66943977611916),40.6694397761,-73.9785781155,5.0,6.0,6.0,4.32936507937,3.98543046358,4.09788359788,4.56821192053,4.0,4.63612217795,5.30194273408,3.9833051145,523.0
2630 BENSON AVENUE,21.0,21K468 ,K,2.0,BROOKLYN,718-333-7875,21,"06,07,08,09,10,SE",K468,1.0,CONNIE HAMILTON,718-333-7850,KINGSBOROUGH EARLY COLLEGE SCHOOL,Secondary School,NY,11214,POINT (-73.985661997761 40.59384476481535),40.5938447648,-73.9856619978,12.0,13.0,13.0,4.36958710977,4.27391742195,4.29305135952,4.63608870968,4.02527805865,4.74672048436,7.71822059233,5.40644744438,592.0
198 VARET STREET,84.0,84K473,K,2.0,BROOKLYN,347-464-7604,14,"09,10,11,12",K473,2.0,Marsha Spampinato,718-782-9830,WILLIAMSBURG CHARTER HIGH SCHOOL,High school,NY,11206,POINT (-73.93607795667376 40.70390709999053),40.7039071,-73.9360779567,14.0,15.0,15.0,4.23070469799,3.93718592965,4.02181208054,4.53227158424,3.80637049455,4.5788590604,3.61574589668,0.941989999715,972.0
850 GRAND STREET,14.0,14K474 ,K,2.0,BROOKLYN,718-782-0911,14,"09,10,11,12,SE",K474,1.0,WILLIAM JUSINO,718-387-0228,PROGRESS HIGH SCHOOL FOR PROFESSIONAL CAREERS,High school,NY,11211,POINT (-73.93973218519483 40.71184608463976),40.7118460846,-73.9397321852,14.0,15.0,15.0,4.23070469799,3.93718592965,4.02181208054,4.53227158424,3.80637049455,4.5788590604,3.61574589668,0.941989999715,949.0
850 GRAND STREET,14.0,14K477 ,K,2.0,BROOKLYN,718-387-3281,14,"09,10,11,12,SE",K477,1.0,MONICA ORTIZ,718-387-2800,SCHOOL FOR LEGAL STUDIES,High school,NY,11211,POINT (-73.93917476213809 40.71197929499009),40.711979295,-73.9391747621,14.0,15.0,15.0,4.23070469799,3.93718592965,4.02181208054,4.53227158424,3.80637049455,4.5788590604,3.61574589668,0.941989999715,509.0
850 GRAND STREET,14.0,14K478 ,K,2.0,BROOKLYN,718-387-2748,14,"09,10,11,12,SE",K478,1.0,Holger Carrillo,718-387-2800,"ENTERPRISE, BUSINESS AND  TECHNOLOGY HIGH SCHOOL",High school,NY,11211,POINT (-73.93861217301995 40.71211642645964),40.7121164265,-73.938612173,14.0,15.0,15.0,4.23070469799,3.93718592965,4.02181208054,4.53227158424,3.80637049455,4.5788590604,3.61574589668,0.941989999715,913.0
283 ADAMS STREET,13.0,13K483 ,K,2.0,BROOKLYN,718-858-4733,13,"09,10,11,12,SE",K483,1.0,SHANNON CURRAN,718-858-1160,"URBAN ASSEMBLY SCHOOL FOR LAW AND JUSTICE, THE",High school,NY,11201,POINT (-73.988356156835 40.69450746736086),40.6945074674,-73.9883561568,5.0,6.0,6.0,4.32936507937,3.98543046358,4.09788359788,4.56821192053,4.0,4.63612217795,5.30194273408,3.9833051145,459.0
430 HOWARD AVENUE,17.0,17K484 ,K,2.0,BROOKLYN,718-953-0682,23,"06,07,08,SE",K484,1.0,HERBERT DAUGHTRY,718-467-0306,RONALD EDMONDS LEARNING CENTER II,Junior High-Intermediate-Middle,NY,11233,POINT (-73.91980677411638 40.67324819869387),40.6732481987,-73.9198067741,6.0,7.0,7.0,4.52483443709,4.13824503311,4.2309602649,4.68046357616,4.15269709544,4.75993377483,8.13194010503,8.88302655385,141.0
